[
    {
        "id": 0,
        "name": "PSZOK, ZGK Sp. z o.o.",
        "address": "ul. Biała Droga(bez numeru)",
        "zipcode": "34-120",
        "city": "Andrychów",
        "opening_hours": "pon. - pt. 7:00 - 17:00",
        "opening_hours_weekend": "sob. Czynne całą dobę",
        "phone": "+33 875 36 61",
        "mail": "zgk@zgk.andrychow.pl",
        "latitude": 49.8688,
        "longitude": 19.3270
    },
    {
        "id": 1,
        "name": "PSZOK",
        "address": "ul. Komunalna 3",
        "zipcode": "16-300",
        "city": "Augustów",
        "opening_hours": "pon. - pt. 11:00 - 18:00",
        "opening_hours_weekend": "sob. 10:00 - 14:00",
        "phone": "+87 643 24 60",
        "mail": "sekretariat@necko.com.pl",
        "latitude": 53.856906076000385,
        "longitude": 23.00878990741214
    },
    {
        "id": 2,
        "name": "PSZOK, ZGO Sp. z o.o.",
        "address": "Zbożowa 8",
        "zipcode": "11-200",
        "city": "Bartoszyce",
        "opening_hours": "pon. - pt. 8:00 - 16:00",
        "opening_hours_weekend": "sob. 9:00 - 15:00",
        "phone": "+89 761 06 50",
        "mail": "zgo@zgobartoszyce.pl",
        "latitude": 54.2670468558291,
        "longitude": 20.801652543563566
    },
    {
        "id": 3,
        "name": "PSZOK, Eko-Region Sp. z o.o.",
        "address": "ul. Przemysłowa 14",
        "zipcode": "97-400",
        "city": "Bełchatów",
        "opening_hours": "pon. - pt. 9:00 - 18:00",
        "opening_hours_weekend": "sob. - nd. Zamknięte",
        "phone": "+44 635 37 12",
        "mail": "sekretariat@eko-region.pl",
        "latitude": 51.348398989780335,
        "longitude": 19.3845788778016
    },
    {
        "id": 4,
        "name": "PSZOK, Zakład Zagospodarowania Odpadów",
        "address": "ul. Ekologiczna 1",
        "zipcode": "21-500",
        "city": "Biała Podlaska",
        "opening_hours": "pon. - pt. 7:00 - 16:00",
        "opening_hours_weekend": "sob. 7:00 - 15:00",
        "phone": "724 594 994",
        "mail": "sekretariatzzo@bwikwodkan.pl",
        "latitude": 52.05400291670839,
        "longitude": 23.200667762493083
    },
    {
        "id": 5,
        "name": "PSZOK, Komunalnik Sp z o.o.",
        "address": "ul. Rzeźnianej 31",
        "zipcode": "21-500",
        "city": "Biała Podlaska",
        "opening_hours": "pon. - pt. 7:00 - 17:00",
        "opening_hours_weekend": "sob. 7:00 - 15:00",
        "phone": "+83 343 46 91",
        "mail": "biuro@komunalnik.pl",
        "latitude": 52.040652350756055,
        "longitude": 23.122767683949295
    },
    {
        "id": 6,
        "name": "PSZOK(baza PUK Serwis Spółka z o.o w Siedlcach)",
        "address": "ul. Brzeska 110",
        "zipcode": "08-110",
        "city": "Siedlce",
        "opening_hours": "pon. - pt. 7:00 - 16:00",
        "opening_hours_weekend": "sob. - nd. Zamknięte",
        "phone": "+25 632 84 01",
        "mail": "puk@puk.siedlce.pl",
        "latitude": 52.15634773188629,
        "longitude": 22.294306593178057
    },
    {
        "id": 7,
        "name": "PSZOK, Ład-San S.C.",
        "address": "ul. Fabryczna 6",
        "zipcode": "78-200",
        "city": "Białogard",
        "opening_hours": "pon. - pt. 10:00 - 18:00",
        "opening_hours_weekend": "sob. 9:00 - 12:00",
        "phone": "+94 312 32 13",
        "mail": "ladsan@poczta.internetdsl.pl",
        "latitude": 54.00388438948339,
        "longitude": 15.976271926366001
    },
    {
        "id": 8,
        "name": "PSZOK, ZUOK w Hryniewiczach",
        "address": "Hryniewicze",
        "zipcode": "16-061",
        "city": "Białystok",
        "opening_hours": "pon. - pt. 7:00 - 18:00",
        "opening_hours_weekend": "sob. 7:00 - 15:00",
        "phone": "+85 678 49 95",
        "mail": "biuro@lech.net.pl",
        "latitude": 53.065805269875796,
        "longitude": 23.14625243416712
    },
    {
        "id": 9,
        "name": "PSZOK, MPO Sp z o.o.",
        "address": "ul. 42 Pułku Piechoty 48",
        "zipcode": "15-950",
        "city": "Białystok",
        "opening_hours": "pon. - pt. 6:00 - 18:00",
        "opening_hours_weekend": "sob. 6:00 - 14:00",
        "phone": "+85 676 83 00",
        "mail": "sekretariat@mpo.bialystok.pl",
        "latitude": 53.142258478679025,
        "longitude": 23.211401897491292
    },
    {
        "id": 10,
        "name": "PSZOK, Przedsiębiorstwo Komunalne Sp z o.o.",
        "address": "ul. Studziwodzka 37",
        "zipcode": "17-100",
        "city": "Bielsk Podlaski",
        "opening_hours": "wt. - pt. 10:00 - 18:00",
        "opening_hours_weekend": "sob. 10:00 - 18:00",
        "phone": "+85 731 82 11",
        "mail": "pk@pkbielsk.pl",
        "latitude": 52.754248362037735,
        "longitude": 23.18861452348482
    },
    {
        "id": 11,
        "name": "PSZOK, ZGO S.A.",
        "address": "ul. Krakowska 315D",
        "zipcode": "43-300",
        "city": "Bielsko-Biała",
        "opening_hours": "pon. - pt. 6:30 - 19:00",
        "opening_hours_weekend": "sob. 8:00 - 16:00",
        "phone": "+33 829 75 90",
        "mail": "poczta@zgo.bielsko.pl",
        "latitude": 49.8271689503606,
        "longitude": 19.09477646850846
    },
    {
        "id": 12,
        "name": "PSZOK",
        "address": "ul. Straconki 1",
        "zipcode": "43-300",
        "city": "Bielsko-Biała",
        "opening_hours": "pon. - pt. 9:00 - 16:00",
        "opening_hours_weekend": "sob. 9:00 - 16:00",
        "phone": "600 556 036",
        "mail": "poczta@zgo.bielsko.pl",
        "latitude": 49.802398796145916,
        "longitude": 19.053265568507264
    },
    {
        "id": 13,
        "name": "PSZOK LAMUSOWNIA, PGK Sp. z o.o.",
        "address": "ul. Krzeszowska 65B",
        "zipcode": "23-400",
        "city": "Biłgoraj",
        "opening_hours": "wt. - pt. 10:00 - 18:00",
        "opening_hours_weekend": "sob. 7:00 - 15:00",
        "phone": "+84 686 54 10",
        "mail": "brak",
        "latitude": 50.521272620765906,
        "longitude": 22.69231219737374
    },
    {
        "id": 14,
        "name": "PSZOK , BZUK Sp. z o. o.",
        "address": "ul. 20go Stycznia 46",
        "zipcode": "32-700",
        "city": "Bochnia",
        "opening_hours": "pon. - pt. 7:00 - 15:00",
        "opening_hours_weekend": "sob. - nd. Zamknięte",
        "phone": "+14 611 80 19",
        "mail": "bzuk@bochnia.pl",
        "latitude": 49.98046126548859,
        "longitude": 20.434245034544837
    },
    {
        "id": 15,
        "name": "PSZOK, GPO Sp. z o.o.",
        "address": "ul. Zgorzelecka 9",
        "zipcode": "59-920",
        "city": "Bogatynia",
        "opening_hours": "pon. - pt. 8:00 - 16:00",
        "opening_hours_weekend": "sob. 7:00 - 15:00",
        "phone": "+75 77 32 028",
        "mail": "gpo@gpobogatynia.pl",
        "latitude": 50.92168081281677,
        "longitude": 14.953033668444471
    },
    {
        "id": 16,
        "name": "PSZOK Łąka",
        "address": "ul. Łąka 2P",
        "zipcode": "59-700",
        "city": "Bolesławiec",
        "opening_hours": "wt. - czw. 10:00 - 18:00",
        "opening_hours_weekend": "sob. 10:00 - 18:00",
        "phone": "757323221",
        "mail": "urzadgminy@gminaboleslawiec.pl",
        "latitude": 51.28619983263866,
        "longitude": 15.573232297407458
    },
    {
        "id": 17,
        "name": "PSZOK, MZGK Sp z o.o.",
        "address": "ul. St. Staszica 6",
        "zipcode": "59-700",
        "city": "Bolesławiec",
        "opening_hours": "pon. - pt. 7:00 - 15:00",
        "opening_hours_weekend": "sob. - nd. Zamknięte",
        "phone": "+75 734 62 71",
        "mail": "mzgk@mzgk.com.pl",
        "latitude": 51.267867458942774,
        "longitude": 15.563167668571642
    },
    {
        "id": 18,
        "name": "PSZOK, Stacja Przeładunkowa Odpadów Komunalnych",
        "address": "ul. Stefczyka",
        "zipcode": "14-500",
        "city": "Braniewo",
        "opening_hours": "pon. - pt. 7:00 - 14:30",
        "opening_hours_weekend": "sob. - nd. Zamknięte",
        "phone": "+55 243 59 42",
        "mail": "sekretariat@zuoelblag.pl",
        "latitude": 54.35791818238887,
        "longitude": 19.830711491836134
    },
    {
        "id": 19,
        "name": "PSZOK Empegieka Sp. z o.o.",
        "address": "ul. Morska 55",
        "zipcode": "14-500",
        "city": "Braniewo",
        "opening_hours": "pon. - pt. 7:00 - 15:00",
        "opening_hours_weekend": "sob. - nd. Zamknięte",
        "phone": "+55 243 29 17",
        "mail": "sprzedaz@empegieka.com.pl",
        "latitude": 54.38673557757139,
        "longitude": 19.813148097548773
    },
    {
        "id": 20,
        "name": "PSZOK MSK",
        "address": "ul. Ustronie 20C",
        "zipcode": "87-300",
        "city": "Brodnica",
        "opening_hours": "pon. - pt. 7:00 - 17:00",
        "opening_hours_weekend": "sob. - nd. Zamknięte",
        "phone": "+56 498 35 79",
        "mail": "brak",
        "latitude": 53.23372882872663,
        "longitude": 19.377430668660388
    },
    {
        "id": 21,
        "name": "PSZOK, PGK Sp. z o.o.",
        "address": "ul. Gajdy 13",
        "zipcode": "87-300",
        "city": "Brodnica",
        "opening_hours": "pon. - pt. 7:00 - 15:00",
        "opening_hours_weekend": "sob. - nd. Zamknięte",
        "phone": "+56 498 30 73",
        "mail": "sekretariat@pgk.com.pl",
        "latitude": 53.26053664325662,
        "longitude": 19.40974282448634
    },
    {
        "id": 22,
        "name": "PSZOK, Spółdzielnia Mieszkaniowa",
        "address": "ul. Witosa 12",
        "zipcode": "87-300",
        "city": "Brodnica",
        "opening_hours": "pon. - pt. 7:00 - 15:00",
        "opening_hours_weekend": "sob. - nd. Zamknięte",
        "phone": "+56 498 77 63",
        "mail": "smbrodnica@adf.pl",
        "latitude": 53.24448455692183,
        "longitude": 19.412293208385954
    },
    {
        "id": 23,
        "name": "PSZOK, ZHK Sp z o.o.",
        "address": "ul. Saperska 1",
        "zipcode": "49-300",
        "city": "Brzeg",
        "opening_hours": "wt. - pt. 10:00 - 17:00",
        "opening_hours_weekend": "sob. 10:00 - 12:00",
        "phone": "+77 416 26 77",
        "mail": "sekretariat@zhkbrzeg.com.pl",
        "latitude": 50.85168193107476,
        "longitude": 17.49712992437801
    },
    {
        "id": 24,
        "name": "PSZOK, BZK Sp z o.o.",
        "address": "ul. Przemysłowa 11",
        "zipcode": "32-800",
        "city": "Brzesko",
        "opening_hours": "pon. - pt. 7:00 - 15:00",
        "opening_hours_weekend": "sob. - nd. Zamknięte",
        "phone": "+14 663 17 63",
        "mail": "zarzad@bzk.com.pl",
        "latitude": 49.97276484199822,
        "longitude": 20.62183318437629
    },
    {
        "id": 25,
        "name": "PSZOK, ProNatura Sp. z o.o.",
        "address": "ul. Ołowiana 43",
        "zipcode": "85-461",
        "city": "Bydgoszcz",
        "opening_hours": "pon. - pt. 8:00 - 20:00",
        "opening_hours_weekend": "sob. 8:00 - 20:00",
        "phone": "+52 506 59 23",
        "mail": "odpady@um.bydgoszcz.pl",
        "latitude": 53.14878833773399,
        "longitude": 17.897527568656553
    },
    {
        "id": 26,
        "name": "PSZOK, ProNatura Sp. z o.o.",
        "address": "ul. Inwalidów",
        "zipcode": "85-727",
        "city": "Bydgoszcz",
        "opening_hours": "pon. - pt. 8:00 - 20:00",
        "opening_hours_weekend": "sob. 8:00 - 20:00",
        "phone": "+52 506 59 25",
        "mail": "odpady@um.bydgoszcz.pl",
        "latitude": 53.13230244659664,
        "longitude": 18.061184763184148
    },
    {
        "id": 27,
        "name": "PSZOK, BPK Sp. z o.o.",
        "address": "al. Jana Pawła II 10",
        "zipcode": "41-900",
        "city": "Bytom",
        "opening_hours": "wt. - pt. 11:00 - 18:00",
        "opening_hours_weekend": "sob. 9:00 - 13:00",
        "phone": "668 645 417",
        "mail": "bpk@bpk.pl",
        "latitude": 50.3505,
        "longitude": 18.9423
    },
    {
        "id": 28,
        "name": "PSZOK, Elwoz Sp. z o.o.",
        "address": "ul. Wybickiego 4A",
        "zipcode": "77-100",
        "city": "Bytów",
        "opening_hours": "wt. oraz czw. 10:00 - 17:00",
        "opening_hours_weekend": "sob. 8:00 - 15:00",
        "phone": "+59 882 20 71",
        "mail": "urzad@bytow.com.pl",
        "latitude": 54.185777859861034,
        "longitude": 17.492361645100466
    },
    {
        "id": 29,
        "name": "PSZOK, MPK Sp. z o.o.",
        "address": "ul. Bieławin 5",
        "zipcode": "22-100",
        "city": "Chełm",
        "opening_hours": "pon. - pt. 8:00 - 16:00",
        "opening_hours_weekend": "sob. 7:00 - 14:00",
        "phone": "+82 565 60 05",
        "mail": "mpgk@mpgkchelm.pl",
        "latitude": 51.14805816855584,
        "longitude": 23.474090984516867
    },
    {
        "id": 30,
        "name": "PSZOK, ZZO Nowy Dwór Sp. z o.o.",
        "address": "ul. Nowy Dwór 35",
        "zipcode": "89-620",
        "city": "Chojnice",
        "opening_hours": "pon. - pt. 6:00 - 16:00",
        "opening_hours_weekend": "sob. - nd. Zamknięte",
        "phone": "+52 398 78 46",
        "mail": "sekretariat@zzonowydwor.pl",
        "latitude": 53.64287293261023,
        "longitude": 17.56143109751432
    },
    {
        "id": 31,
        "name": "PSZOK, SORCIK",
        "address": "ul. Bytkowska 15",
        "zipcode": "41-503",
        "city": "Chorzów",
        "opening_hours": "pon. - pt. 10:00 - 18:00",
        "opening_hours_weekend": "sob. 10:00 - 16:00",
        "phone": "+32 416 50 00",
        "mail": "odpady@chorzow.eu",
        "latitude": 50.30477927156794,
        "longitude": 18.978705168529196
    }
    
]
