[
    {
        "id": 0,
        "name": "PSZOK, ZGK Sp. z o.o.",
        "address": "ul. Biała Droga(bez numeru)",
        "zipcode": "34-120",
        "city": "Andrychów",
        "opening_hours": "pon. - pt. 7:00 - 17:00",
        "opening_hours_weekend": "sob. Czynne całą dobę",
        "phone": "+33 875 36 61",
        "mail": "zgk@zgk.andrychow.pl",
        "latitude": 49.8688,
        "longitude": 19.3270
    },
    {
        "id": 1,
        "name": "PSZOK",
        "address": "ul. Komunalna 3",
        "zipcode": "16-300",
        "city": "Augustów",
        "opening_hours": "pon. - pt. 11:00 - 18:00",
        "opening_hours_weekend": "sob. 10:00 - 14:00",
        "phone": "+87 643 24 60",
        "mail": "sekretariat@necko.com.pl",
        "latitude": 53.856906076000385,
        "longitude": 23.00878990741214
    },
    {
        "id": 2,
        "name": "PSZOK, ZGO Sp. z o.o.",
        "address": "Zbożowa 8",
        "zipcode": "11-200",
        "city": "Bartoszyce",
        "opening_hours": "pon. - pt. 8:00 - 16:00",
        "opening_hours_weekend": "sob. 9:00 - 15:00",
        "phone": "+89 761 06 50",
        "mail": "zgo@zgobartoszyce.pl",
        "latitude": 54.2670468558291,
        "longitude": 20.801652543563566
    },
    {
        "id": 3,
        "name": "PSZOK, Eko-Region Sp. z o.o.",
        "address": "ul. Przemysłowa 14",
        "zipcode": "97-400",
        "city": "Bełchatów",
        "opening_hours": "pon. - pt. 9:00 - 18:00",
        "opening_hours_weekend": "sob. - nd. Zamknięte",
        "phone": "+44 635 37 12",
        "mail": "sekretariat@eko-region.pl",
        "latitude": 51.348398989780335,
        "longitude": 19.3845788778016
    },
    {
        "id": 4,
        "name": "PSZOK, Zakład Zagospodarowania Odpadów",
        "address": "ul. Ekologiczna 1",
        "zipcode": "21-500",
        "city": "Biała Podlaska",
        "opening_hours": "pon. - pt. 7:00 - 16:00",
        "opening_hours_weekend": "sob. 7:00 - 15:00",
        "phone": "724 594 994",
        "mail": "sekretariatzzo@bwikwodkan.pl",
        "latitude": 52.05400291670839,
        "longitude": 23.200667762493083
    },
    {
        "id": 5,
        "name": "PSZOK, Komunalnik Sp z o.o.",
        "address": "ul. Rzeźnianej 31",
        "zipcode": "21-500",
        "city": "Biała Podlaska",
        "opening_hours": "pon. - pt. 7:00 - 17:00",
        "opening_hours_weekend": "sob. 7:00 - 15:00",
        "phone": "+83 343 46 91",
        "mail": "biuro@komunalnik.pl",
        "latitude": 52.040652350756055,
        "longitude": 23.122767683949295
    },
    {
        "id": 6,
        "name": "PSZOK(baza PUK Serwis Spółka z o.o w Siedlcach)",
        "address": "ul. Brzeska 110",
        "zipcode": "08-110",
        "city": "Siedlce",
        "opening_hours": "pon. - pt. 7:00 - 16:00",
        "opening_hours_weekend": "sob. - nd. Zamknięte",
        "phone": "+25 632 84 01",
        "mail": "puk@puk.siedlce.pl",
        "latitude": 52.15634773188629,
        "longitude": 22.294306593178057
    },
    {
        "id": 7,
        "name": "PSZOK, Ład-San S.C.",
        "address": "ul. Fabryczna 6",
        "zipcode": "78-200",
        "city": "Białogard",
        "opening_hours": "pon. - pt. 10:00 - 18:00",
        "opening_hours_weekend": "sob. 9:00 - 12:00",
        "phone": "+94 312 32 13",
        "mail": "ladsan@poczta.internetdsl.pl",
        "latitude": 54.00388438948339,
        "longitude": 15.976271926366001
    },
    {
        "id": 8,
        "name": "PSZOK, ZUOK w Hryniewiczach",
        "address": "Hryniewicze",
        "zipcode": "16-061",
        "city": "Białystok",
        "opening_hours": "pon. - pt. 7:00 - 18:00",
        "opening_hours_weekend": "sob. 7:00 - 15:00",
        "phone": "+85 678 49 95",
        "mail": "biuro@lech.net.pl",
        "latitude": 53.065805269875796,
        "longitude": 23.14625243416712
    },
    {
        "id": 9,
        "name": "PSZOK, MPO Sp z o.o.",
        "address": "ul. 42 Pułku Piechoty 48",
        "zipcode": "15-950",
        "city": "Białystok",
        "opening_hours": "pon. - pt. 6:00 - 18:00",
        "opening_hours_weekend": "sob. 6:00 - 14:00",
        "phone": "+85 676 83 00",
        "mail": "sekretariat@mpo.bialystok.pl",
        "latitude": 53.142258478679025,
        "longitude": 23.211401897491292
    },
    {
        "id": 10,
        "name": "PSZOK, Przedsiębiorstwo Komunalne Sp z o.o.",
        "address": "ul. Studziwodzka 37",
        "zipcode": "17-100",
        "city": "Bielsk Podlaski",
        "opening_hours": "wt. - pt. 10:00 - 18:00",
        "opening_hours_weekend": "sob. 10:00 - 18:00",
        "phone": "+85 731 82 11",
        "mail": "pk@pkbielsk.pl",
        "latitude": 52.754248362037735,
        "longitude": 23.18861452348482
    },
    {
        "id": 11,
        "name": "PSZOK, ZGO S.A.",
        "address": "ul. Krakowska 315D",
        "zipcode": "43-300",
        "city": "Bielsko-Biała",
        "opening_hours": "pon. - pt. 6:30 - 19:00",
        "opening_hours_weekend": "sob. 8:00 - 16:00",
        "phone": "+33 829 75 90",
        "mail": "poczta@zgo.bielsko.pl",
        "latitude": 49.8271689503606,
        "longitude": 19.09477646850846
    },
    {
        "id": 12,
        "name": "PSZOK",
        "address": "ul. Straconki 1",
        "zipcode": "43-300",
        "city": "Bielsko-Biała",
        "opening_hours": "pon. - pt. 9:00 - 16:00",
        "opening_hours_weekend": "sob. 9:00 - 16:00",
        "phone": "600 556 036",
        "mail": "poczta@zgo.bielsko.pl",
        "latitude": 49.802398796145916,
        "longitude": 19.053265568507264
    },
    {
        "id": 13,
        "name": "PSZOK LAMUSOWNIA, PGK Sp. z o.o.",
        "address": "ul. Krzeszowska 65B",
        "zipcode": "23-400",
        "city": "Biłgoraj",
        "opening_hours": "wt. - pt. 10:00 - 18:00",
        "opening_hours_weekend": "sob. 7:00 - 15:00",
        "phone": "+84 686 54 10",
        "mail": "brak",
        "latitude": 50.521272620765906,
        "longitude": 22.69231219737374
    },
    {
        "id": 14,
        "name": "PSZOK , BZUK Sp. z o. o.",
        "address": "ul. 20go Stycznia 46",
        "zipcode": "32-700",
        "city": "Bochnia",
        "opening_hours": "pon. - pt. 7:00 - 15:00",
        "opening_hours_weekend": "sob. - nd. Zamknięte",
        "phone": "+14 611 80 19",
        "mail": "bzuk@bochnia.pl",
        "latitude": 49.98046126548859,
        "longitude": 20.434245034544837
    },
    {
        "id": 15,
        "name": "PSZOK, GPO Sp. z o.o.",
        "address": "ul. Zgorzelecka 9",
        "zipcode": "59-920",
        "city": "Bogatynia",
        "opening_hours": "pon. - pt. 8:00 - 16:00",
        "opening_hours_weekend": "sob. 7:00 - 15:00",
        "phone": "+75 77 32 028",
        "mail": "gpo@gpobogatynia.pl",
        "latitude": 50.92168081281677,
        "longitude": 14.953033668444471
    },
    {
        "id": 16,
        "name": "PSZOK Łąka",
        "address": "ul. Łąka 2P",
        "zipcode": "59-700",
        "city": "Bolesławiec",
        "opening_hours": "wt. - czw. 10:00 - 18:00",
        "opening_hours_weekend": "sob. 10:00 - 18:00",
        "phone": "757323221",
        "mail": "urzadgminy@gminaboleslawiec.pl",
        "latitude": 51.28619983263866,
        "longitude": 15.573232297407458
    },
    {
        "id": 17,
        "name": "PSZOK, MZGK Sp z o.o.",
        "address": "ul. St. Staszica 6",
        "zipcode": "59-700",
        "city": "Bolesławiec",
        "opening_hours": "pon. - pt. 7:00 - 15:00",
        "opening_hours_weekend": "sob. - nd. Zamknięte",
        "phone": "+75 734 62 71",
        "mail": "mzgk@mzgk.com.pl",
        "latitude": 51.267867458942774,
        "longitude": 15.563167668571642
    },
    {
        "id": 18,
        "name": "PSZOK, Stacja Przeładunkowa Odpadów Komunalnych",
        "address": "ul. Stefczyka",
        "zipcode": "14-500",
        "city": "Braniewo",
        "opening_hours": "pon. - pt. 7:00 - 14:30",
        "opening_hours_weekend": "sob. - nd. Zamknięte",
        "phone": "+55 243 59 42",
        "mail": "sekretariat@zuoelblag.pl",
        "latitude": 54.35791818238887,
        "longitude": 19.830711491836134
    },
    {
        "id": 19,
        "name": "PSZOK Empegieka Sp. z o.o.",
        "address": "ul. Morska 55",
        "zipcode": "14-500",
        "city": "Braniewo",
        "opening_hours": "pon. - pt. 7:00 - 15:00",
        "opening_hours_weekend": "sob. - nd. Zamknięte",
        "phone": "+55 243 29 17",
        "mail": "sprzedaz@empegieka.com.pl",
        "latitude": 54.38673557757139,
        "longitude": 19.813148097548773
    },
    {
        "id": 20,
        "name": "PSZOK MSK",
        "address": "ul. Ustronie 20C",
        "zipcode": "87-300",
        "city": "Brodnica",
        "opening_hours": "pon. - pt. 7:00 - 17:00",
        "opening_hours_weekend": "sob. - nd. Zamknięte",
        "phone": "+56 498 35 79",
        "mail": "brak",
        "latitude": 53.23372882872663,
        "longitude": 19.377430668660388
    },
    {
        "id": 21,
        "name": "PSZOK, PGK Sp. z o.o.",
        "address": "ul. Gajdy 13",
        "zipcode": "87-300",
        "city": "Brodnica",
        "opening_hours": "pon. - pt. 7:00 - 15:00",
        "opening_hours_weekend": "sob. - nd. Zamknięte",
        "phone": "+56 498 30 73",
        "mail": "sekretariat@pgk.com.pl",
        "latitude": 53.26053664325662,
        "longitude": 19.40974282448634
    },
    {
        "id": 22,
        "name": "PSZOK, Spółdzielnia Mieszkaniowa",
        "address": "ul. Witosa 12",
        "zipcode": "87-300",
        "city": "Brodnica",
        "opening_hours": "pon. - pt. 7:00 - 15:00",
        "opening_hours_weekend": "sob. - nd. Zamknięte",
        "phone": "+56 498 77 63",
        "mail": "smbrodnica@adf.pl",
        "latitude": 53.24448455692183,
        "longitude": 19.412293208385954
    },
    {
        "id": 23,
        "name": "PSZOK, ZHK Sp z o.o.",
        "address": "ul. Saperska 1",
        "zipcode": "49-300",
        "city": "Brzeg",
        "opening_hours": "wt. - pt. 10:00 - 17:00",
        "opening_hours_weekend": "sob. 10:00 - 12:00",
        "phone": "+77 416 26 77",
        "mail": "sekretariat@zhkbrzeg.com.pl",
        "latitude": 50.85168193107476,
        "longitude": 17.49712992437801
    },
    {
        "id": 24,
        "name": "PSZOK, BZK Sp z o.o.",
        "address": "ul. Przemysłowa 11",
        "zipcode": "32-800",
        "city": "Brzesko",
        "opening_hours": "pon. - pt. 7:00 - 15:00",
        "opening_hours_weekend": "sob. - nd. Zamknięte",
        "phone": "+14 663 17 63",
        "mail": "zarzad@bzk.com.pl",
        "latitude": 49.97276484199822,
        "longitude": 20.62183318437629
    },
    {
        "id": 25,
        "name": "PSZOK, ProNatura Sp. z o.o.",
        "address": "ul. Ołowiana 43",
        "zipcode": "85-461",
        "city": "Bydgoszcz",
        "opening_hours": "pon. - pt. 8:00 - 20:00",
        "opening_hours_weekend": "sob. 8:00 - 20:00",
        "phone": "+52 506 59 23",
        "mail": "odpady@um.bydgoszcz.pl",
        "latitude": 53.14878833773399,
        "longitude": 17.897527568656553
    },
    {
        "id": 26,
        "name": "PSZOK, ProNatura Sp. z o.o.",
        "address": "ul. Inwalidów",
        "zipcode": "85-727",
        "city": "Bydgoszcz",
        "opening_hours": "pon. - pt. 8:00 - 20:00",
        "opening_hours_weekend": "sob. 8:00 - 20:00",
        "phone": "+52 506 59 25",
        "mail": "odpady@um.bydgoszcz.pl",
        "latitude": 53.13230244659664,
        "longitude": 18.061184763184148
    },
    {
        "id": 27,
        "name": "PSZOK, BPK Sp. z o.o.",
        "address": "al. Jana Pawła II 10",
        "zipcode": "41-900",
        "city": "Bytom",
        "opening_hours": "wt. - pt. 11:00 - 18:00",
        "opening_hours_weekend": "sob. 9:00 - 13:00",
        "phone": "668 645 417",
        "mail": "bpk@bpk.pl",
        "latitude": 50.3505,
        "longitude": 18.9423
    },
    {
        "id": 28,
        "name": "PSZOK, Elwoz Sp. z o.o.",
        "address": "ul. Wybickiego 4A",
        "zipcode": "77-100",
        "city": "Bytów",
        "opening_hours": "wt. oraz czw. 10:00 - 17:00",
        "opening_hours_weekend": "sob. 8:00 - 15:00",
        "phone": "+59 882 20 71",
        "mail": "urzad@bytow.com.pl",
        "latitude": 54.185777859861034,
        "longitude": 17.492361645100466
    },
    {
        "id": 29,
        "name": "PSZOK, MPK Sp. z o.o.",
        "address": "ul. Bieławin 5",
        "zipcode": "22-100",
        "city": "Chełm",
        "opening_hours": "pon. - pt. 8:00 - 16:00",
        "opening_hours_weekend": "sob. 7:00 - 14:00",
        "phone": "+82 565 60 05",
        "mail": "mpgk@mpgkchelm.pl",
        "latitude": 51.14805816855584,
        "longitude": 23.474090984516867
    },
    {
        "id": 30,
        "name": "PSZOK, ZZO Nowy Dwór Sp. z o.o.",
        "address": "ul. Nowy Dwór 35",
        "zipcode": "89-620",
        "city": "Chojnice",
        "opening_hours": "pon. - pt. 6:00 - 16:00",
        "opening_hours_weekend": "sob. - nd. Zamknięte",
        "phone": "+52 398 78 46",
        "mail": "sekretariat@zzonowydwor.pl",
        "latitude": 53.64287293261023,
        "longitude": 17.56143109751432
    },
    {
        "id": 31,
        "name": "PSZOK, SORCIK",
        "address": "ul. Bytkowska 15",
        "zipcode": "41-503",
        "city": "Chorzów",
        "opening_hours": "pon. - pt. 10:00 - 18:00",
        "opening_hours_weekend": "sob. 10:00 - 16:00",
        "phone": "+32 416 50 00",
        "mail": "odpady@chorzow.eu",
        "latitude": 50.30477927156794,
        "longitude": 18.978705168529196
    },
    {
        "id": 32,
        "name": "PSZOK, MZGK Sp. z o.o.",
        "address": "ul. Stara Huta 5",
        "zipcode": "32-500",
        "city": "Chrzanów",
        "opening_hours": "wt. - pt. 11:30 - 18:00",
        "opening_hours_weekend": "sob. 7:30 - 14:00",
        "phone": "533566201",
        "mail": "sekretariat@zmgk.chrzanow.pl",
        "latitude": 50.133808971418276,
        "longitude": 19.397615997342385
    },
    {
        "id": 33,
        "name": "PSZOK, PUK Sp. z o.o.",
        "address": "ul. Gostkowska 83",
        "zipcode": "06-400",
        "city": "Ciechanów",
        "opening_hours": "pon. - pt. 7:00 - 15:00",
        "opening_hours_weekend": "sob. - nd. Zamknięte",
        "phone": "+23 672 22 42",
        "mail": "puk@pukciechanow.pl",
        "latitude": 52.89762537049843,
        "longitude": 20.624176962568598
    },
    {
        "id": 34,
        "name": "PSZOK, ZGK w Cieszynie Sp. z o.o.",
        "address": "ul. Motokrosowa 27",
        "zipcode": "43-400",
        "city": "Cieszyn",
        "opening_hours": "pon. - pt. 6:00 - 16:00",
        "opening_hours_weekend": "sob. - nd. Zamknięte",
        "phone": "795599677",
        "mail": "zgk@zgk.cieszyn.pl",
        "latitude": 49.775231157453796,
        "longitude": 18.61007644651298
    },
    {
        "id": 35,
        "name": "PSZOK, PGO Cortex- II Sp z o.o.",
        "address": "ul. Szyb Jana 1H",
        "zipcode": "41-250",
        "city": "Czeladź",
        "opening_hours": "pon. - pt. 6:30 - 14:30",
        "opening_hours_weekend": "sob. - nt. Zamknięte",
        "phone": "+32 265 93 37",
        "mail": "cortex@cortex.pl",
        "latitude": 50.30586199383028,
        "longitude": 19.058495506210207
    },
    {
        "id": 36,
        "name": "SPSZOK, CPK Sp. z o.o. w Sobuczynie,",
        "address": "ul. Konwaliowa 1",
        "zipcode": "42-263",
        "city": "Częstochowa",
        "opening_hours": "pon. - pt. 6:00 - 18:00",
        "opening_hours_weekend": "sob. 6:00 - 16:00",
        "phone": "+34 327 53 20",
        "mail": "sekretariat@czpk.czest.pl",
        "latitude": 50.73142338064782,
        "longitude": 19.103082826208382
    },
    {
        "id": 37,
        "name": "PSZOK, Eko-Punkt",
        "address": "ul. Szałasowizna 7",
        "zipcode": "42-530",
        "city": "Dąbrowa Górnicza",
        "opening_hours": "pon. - pt. 10:00 - 18:00",
        "opening_hours_weekend": "sob. - nd. Zamknięte",
        "phone": "728320775",
        "mail": "sekretariat@mzgodg.pl",
        "latitude": 50.30407500768003,
        "longitude": 19.283693873764737
    },
    {
        "id": 38,
        "name": "PSZOK, MZGO Sp zo.o.",
        "address": "al. Piłsudskiego 28A",
        "zipcode": "41-303",
        "city": "Dąbrowa Górnicza",
        "opening_hours": "pon. - pt. 7:00 - 15:00",
        "opening_hours_weekend": "sob. - nd. Zamknięte",
        "phone": "+32 264 46 23",
        "mail": "sekretariat@mzgodg.pl",
        "latitude": 50.3296741435413,
        "longitude": 19.22080846825689
    },
    {
        "id": 39,
        "name": "PSZOK, ZUM w Dębicy Sp z o.o.",
        "address": "ul. Drogowców 13",
        "zipcode": "39-200",
        "city": "Dębica",
        "opening_hours": "pon. - pt. 8:00 - 18:00",
        "opening_hours_weekend": "sob. 8:00 - 16:00",
        "phone": "+14 681 64 86",
        "mail": "---",
        "latitude": 50.060471383721044,
        "longitude": 21.436184197338704
    },
    {
        "id": 40,
        "name": "PSZOK, ZUO Sp. z o.o.",
        "address": "ul. Mazurska 42",
        "zipcode": "82-300",
        "city": "Elbląg",
        "opening_hours": "pon. - pt. 6:00 - 17:30",
        "opening_hours_weekend": "sob. 6:00 - 13:30",
        "phone": "+55 236 12 25",
        "mail": "sekretariat@zuoelblag.pl",
        "latitude": 54.20708309513335,
        "longitude": 19.393738726387603
    },
    {
        "id": 41,
        "name": "PSZOK, PUK Sp. z o.o.",
        "address": "ul. Suwalska 38",
        "zipcode": "19-300",
        "city": "Ełk",
        "opening_hours": "pon. - pt. 7:00 - 15:00",
        "opening_hours_weekend": "sob. - nt. Zamknięte",
        "phone": "+87 610 44 54",
        "mail": "sekretariat@puk.elk.pl",
        "latitude": 53.829020621300394,
        "longitude": 22.373311688361945
    },
    {
        "id": 42,
        "name": "PSZOK, PGO Eko-MAZURY Sp. z o.o.",
        "address": "ul. Siedliska 77",
        "zipcode": "19-300",
        "city": "Ełk",
        "opening_hours": "pon. - pt. 7:00 - 15:00",
        "opening_hours_weekend": "sob. 11:00 - 13:00",
        "phone": "+87 621 01 01",
        "mail": "eko-mazury@elk.com.pl",
        "latitude": 53.84763896026292,
        "longitude": 22.321802270549522
    },
    {
        "id": 43,
        "name": "PSZOK, ZU Sp. z o.o.",
        "address": "ul. Jabłoniowa 55",
        "zipcode": "80-180",
        "city": "Gdańsk",
        "opening_hours": "pon. - pt. 6:00 - 18:00",
        "opening_hours_weekend": "sob. 6:00 - 14:00",
        "phone": "+58 524 45 00",
        "mail": "zut@zut.com.pl",
        "latitude": 54.32231641526775,
        "longitude": 18.54079596871067
    },
    {
        "id": 44,
        "name": "PSZOK",
        "address": "ul. Konwaliowa 1",
        "zipcode": "81-651",
        "city": "Gdynia Witomino",
        "opening_hours": "pon. - pt. 14:00 - 18:00",
        "opening_hours_weekend": "sob. - nd. Zamknięte",
        "phone": "609045410",
        "mail": "dgo@kzg.pl",
        "latitude": 54.50049193303436,
        "longitude": 18.514949111048935
    },
    {
        "id": 45,
        "name": "PSZOK",
        "address": "ul. Chylońska 301",
        "zipcode": "81-016",
        "city": "Gdynia Cisowa",
        "opening_hours": "pon. i śr. 14:00 - 17:00",
        "opening_hours_weekend": "sob. 11:00 - 15:00",
        "phone": "609045410",
        "mail": "dgo@kzg.pl",
        "latitude": 54.548677748715725,
        "longitude": 18.43445740305461
    },
    {
        "id": 46,
        "name": "PSZOK",
        "address": "ul. Żeliwna 3",
        "zipcode": "81-159",
        "city": "Gdynia Podgórze",
        "opening_hours": "wt. i czw. 14:00 - 17:00",
        "opening_hours_weekend": "sob. 11:00 - 15:00",
        "phone": "609045410",
        "mail": "dgo@kzg.pl",
        "latitude": 54.55578852162331,
        "longitude": 18.49309872726496
    },
    {
        "id": 47,
        "name": "PSZOK",
        "address": "ul.Nałkowskiej 20",
        "zipcode": "81-590",
        "city": "Gdynia Karwiny",
        "opening_hours": "wt. i czw. 14:00 - 17:00",
        "opening_hours_weekend": "sob. 10:00 - 14:00",
        "phone": "+58 772 35 00",
        "mail": "wyrzucamto@gdynia.pl",
        "latitude": 54.47436977264046,
        "longitude": 18.50155519755282
    },
    {
        "id": 48,
        "name": "PSZOK",
        "address": "ul. Kasztanowa 4A",
        "zipcode": "81-515",
        "city": "Gdynia Orłowo",
        "opening_hours": "pon. - pt. 12:00 - 15:00",
        "opening_hours_weekend": "sob. - nd. Zamknięte",
        "phone": "609045410",
        "mail": "dgo@kzg.pl",
        "latitude": 54.48388200536768,
        "longitude": 18.546582168718203
    },
    {
        "id": 49,
        "name": "PSZOK",
        "address": "ul. Zielona 3",
        "zipcode": "11-520",
        "city": "Ryn",
        "opening_hours": "śr. 14:00 - 17:00",
        "opening_hours_weekend": "sob. 9:00 - 12:00",
        "phone": "660470540",
        "mail": "---",
        "latitude": 53.93890747246962,
        "longitude": 21.552079297527822
    },
    {
        "id": 50,
        "name": "PSZOK",
        "address": "ul. Sienkiewicza 24",
        "zipcode": "11-600",
        "city": "Węgorzewo",
        "opening_hours": "pon. - pt. 9:00 - 18:00",
        "opening_hours_weekend": "sob. 9:00 - 14:00",
        "phone": "660470540",
        "mail": "pszok@zuokspytkowo.pl",
        "latitude": 54.21525624615481,
        "longitude": 21.74990112637577
    },
    {
        "id": 51,
        "name": "PSZOK",
        "address": "ul. Wierzbińska 2",
        "zipcode": "12-250",
        "city": "Orzysz",
        "opening_hours": "wt. i czw. 9:00 - 17:00",
        "opening_hours_weekend": "sob. 8:00 - 14:00",
        "phone": "660470540",
        "mail": "pszok@zuokspytkowo.pl",
        "latitude": 53.804068236532295,
        "longitude": 21.948921826356738
    },
    {
        "id": 52,
        "name": "PSZOK, ZUOK",
        "address": "ul. Spytkowo 69",
        "zipcode": "11-500",
        "city": "Giżycko",
        "opening_hours": "pon. - pt. 7:00 - 15:00",
        "opening_hours_weekend": "sob. - nd. Zamknięte",
        "phone": "660470540",
        "mail": "pszok@zuokspytkowo.pl",
        "latitude": 54.08918837304663,
        "longitude": 21.80289200284266
    },
    {
        "id": 53,
        "name": "PSZOK, PSiUOK Sp. z o.o.",
        "address": "ul. Rybnicka 199B",
        "zipcode": "44-100",
        "city": "Gliwice",
        "opening_hours": "pon. - pt. 8:00 - 18:00",
        "opening_hours_weekend": "sob. 8:00 - 14:00",
        "phone": "668136080",
        "mail": "sekretariat@pzogliwice.pl",
        "latitude": 50.26058377358476,
        "longitude": 18.66569489027003
    },
    {
        "id": 54,
        "name": "PSZOK, GPK- Suez Głogów Sp. z o.o.",
        "address": "ul. Transportowa 6",
        "zipcode": "67-200",
        "city": "Głogów",
        "opening_hours": "pon. - pt. 10:00 - 18:00",
        "opening_hours_weekend": "sob. 8:00 - 16:00",
        "phone": "507727963",
        "mail": "iod@gpkglogow.pl",
        "latitude": 51.6554828718504,
        "longitude": 16.113816597423984
    },
    {
        "id": 55,
        "name": "PSZOK, GPK- Suez Głogów Sp. z o.o.",
        "address": "ul. Przemysłowa 7A",
        "zipcode": "67-200",
        "city": "Głogów",
        "opening_hours": "pon. - pt. 7:00 - 15:00",
        "opening_hours_weekend": "sob. - nd. Zamknięte",
        "phone": "+76 726 56 56",
        "mail": "iod@gpkglogow.pl",
        "latitude": 51.67028612572728,
        "longitude": 16.07200019742468
    },
    {
        "id": 56,
        "name": "PSZOK, ZOM Sp. z o.o.",
        "address": "ul. Osiniec 6",
        "zipcode": "62-200",
        "city": "Gniezno",
        "opening_hours": "wt. - pt. 11:00 - 18:00",
        "opening_hours_weekend": "sob. 8:00 - 14:00",
        "phone": "---",
        "mail": "---",
        "latitude": 52.518569863244075,
        "longitude": 17.614195511158012
    },
    {
        "id": 57,
        "name": "PSZOK, PUK EMPOL Sp z o.o.",
        "address": "ul. Przemysłowa 7",
        "zipcode": "38-300",
        "city": "Gorlice",
        "opening_hours": "pon. - pt. 8:00 - 16:00",
        "opening_hours_weekend": "sob. - nd. Zamknięte",
        "phone": "+18 353 97 93",
        "mail": "---",
        "latitude": 49.68107397410121,
        "longitude": 21.189726874037827
    },
    {
        "id": 58,
        "name": "PSZOK, Związek Celowy Gmin MG-6",
        "address": "ul. Teatralna 49",
        "zipcode": "66-400",
        "city": "Gorzów Wlkp.",
        "opening_hours": "pon. - pt. 7:30 - 15:30",
        "opening_hours_weekend": "sob. - nd. Zamknięte",
        "phone": "+95 728 71 02",
        "mail": "mg6@zcg.net.pl ",
        "latitude": 52.73248029583887,
        "longitude": 15.245243780576077
    },
    {
        "id": 59,
        "name": "PSZOK, Stacja Przeładunkowa Ospadów Komunalnych",
        "address": "ul. Gola (bez numeru)",
        "zipcode": "63-800",
        "city": "Gostyń",
        "opening_hours": "pon. - pt. 7:00 - 18:00",
        "opening_hours_weekend": "sob. 8:00 - 14:00",
        "phone": "506182246",
        "mail": "---",
        "latitude": 51.88444469427335,
        "longitude": 16.94826829743424
    },
    {
        "id": 60,
        "name": "PSZOK (była kompostownia odpadów)",
        "address": "ul. Chrzanów Duży 15A",
        "zipcode": "---",
        "city": "Grodzisk Mazowiecki",
        "opening_hours": "pon. - pt. 7:00 - 18:00",
        "opening_hours_weekend": "sob. 7:00 - 14:00",
        "phone": "+22 724 13 84",
        "mail": "---",
        "latitude": 52.12204861004674,
        "longitude": 20.63029679744491
    },
    {
        "id": 61,
        "name": "PSZOK, MZK Sp. z o.o.",
        "address": "ul. Składowa 21",
        "zipcode": "86-300",
        "city": "Grudziądz",
        "opening_hours": "pon. - pt. 7:00 - 18:00",
        "opening_hours_weekend": "sob. 8:00 - 14:00",
        "phone": "+56 450 42 35",
        "mail": "---",
        "latitude": 53.43954346317246,
        "longitude": 18.720509824494684
    },
    {
        "id": 62,
        "name": "PSZOK, MWiO Sp. z o.o.",
        "address": "ul. Zakurzewo 39A",
        "zipcode": "86-302",
        "city": "Grudziądz",
        "opening_hours": "pon. - pt. 7:00 - 17:00",
        "opening_hours_weekend": "sob. 9:00 - 13:00",
        "phone": "---",
        "mail": "---",
        "latitude": 53.56817246617983,
        "longitude": 18.78583857462226
    },
    {
        "id": 63,
        "name": "PSZOK, F.H.U Grabowiecki Sp z o.o.",
        "address": "ul. Niekładzka 4",
        "zipcode": "72-300",
        "city": "Gryfice",
        "opening_hours": "---",
        "opening_hours_weekend": "---",
        "phone": "---",
        "mail": "---",
        "latitude": 53.92676171881324,
        "longitude": 15.194869414239543
    },
    {
        "id": 64,
        "name": "PSZOK, PGKiM Sp. z o.o.",
        "address": "ul. Krucza 20",
        "zipcode": "22-500",
        "city": "Hrubieszów",
        "opening_hours": "pon. - pt. 10:00 - 18:00",
        "opening_hours_weekend": "sob. 8:00 - 16:00",
        "phone": "+84 535 38 11",
        "mail": "sekretariat@pgkimhrubieszow.pl",
        "latitude": 50.80568249424466,
        "longitude": 23.896472684338356
    },
    {
        "id": 65,
        "name": "PSZOK, PGKiM Sp. z o.o.",
        "address": "ul. Bagienna 77",
        "zipcode": "88-101",
        "city": "Inowrocław",
        "opening_hours": "pon. - pt. 7:30 - 19:00",
        "opening_hours_weekend": "sob. 8:00 - 12:30",
        "phone": "+52 352 76 13",
        "mail": "sekretariat@pgkimino.pl",
        "latitude": 52.758291815069136,
        "longitude": 18.22900578980361
    },
    {
        "id": 66,
        "name": "PSZOK, P.U. Hetman",
        "address": "ul. Turystycznej 38 w Nadarzynie",
        "zipcode": "---",
        "city": "Janki",
        "opening_hours": "pon. - pt. 8:00 - 17:00",
        "opening_hours_weekend": "sob. - nd. Zamknięte",
        "phone": "+22 868 48 20",
        "mail": "boknadarzyn@puhetman.pl",
        "latitude": 52.10500561083136,
        "longitude": 20.808812233949354
    },
    {
        "id": 67,
        "name": "PSZOK, ZGO Sp. z o.o.",
        "address": "ul. im. Mariusza Małynicza 1, Witaszyczki",
        "zipcode": "63-200",
        "city": "Jarocin",
        "opening_hours": "pon. - pt. 6:00 - 21:00",
        "opening_hours_weekend": "sob. 8:00 - 14:00",
        "phone": "+62 747 24 56",
        "mail": "sekretariat@wcr-jarocin.pl",
        "latitude": 51.97189735417873,
        "longitude": 17.536656908509947
    },
    {
        "id": 68,
        "name": "PSZOK, PGKiM Sp. z o.o.",
        "address": "ul. Przemyska 15",
        "zipcode": "37-500",
        "city": "Jarosław",
        "opening_hours": "pon. - pt. 7:00 - 15:00",
        "opening_hours_weekend": "sob. - nd. Zamknięte",
        "phone": "+16 621 25 60",
        "mail": "biuro@pgkimjaroslaw.pl",
        "latitude": 50.017285222611264,
        "longitude": 22.687504410846543
    },
    {
        "id": 69,
        "name": "PSZOK (teren przy zamkniętym składowisku odpadów)",
        "address": "ul. Żniwna 11",
        "zipcode": "38-200",
        "city": "Jasło",
        "opening_hours": "wt. - pt. 9:00 - 18:00",
        "opening_hours_weekend": "sob. 9:00 - 16:00",
        "phone": "+13 445 57 58",
        "mail": "---",
        "latitude": 49.73800473921466,
        "longitude": 21.49988305500961
    },
    {
        "id": 70,
        "name": "PSZOK, PST Transgór S.A.",
        "address": "ul. Norwida 34",
        "zipcode": "44-268",
        "city": "Jastrzębie-Zdrój",
        "opening_hours": "pon. - pt. 7:30 - 17:00",
        "opening_hours_weekend": "sob. 8:00 - 12:00",
        "phone": "+32 755 54 92",
        "mail": "---",
        "latitude": 49.98198582307512,
        "longitude": 18.628782283113928
    },
    {
        "id": 71,
        "name": "PSZOK, MZNK w Jaworznie",
        "address": "ul. Górnośląska 39",
        "zipcode": "43-602",
        "city": "Jaworzno",
        "opening_hours": "pon. - pt. 8:00 - 19:10",
        "opening_hours_weekend": "sob. 8:00 - 13:40",
        "phone": "+32 745 10 72",
        "mail": "sekretariat@mznk.jaworzno.pl",
        "latitude": 50.237432196048125,
        "longitude": 19.271088868526252
    },
    {
        "id": 72,
        "name": "PSZOK, MPGK Sp z o.o.",
        "address": "ul. Wolności 161/163",
        "zipcode": "58-500",
        "city": "Jelenia-Góra",
        "opening_hours": "pon. - pt. 8:00 - 17:30",
        "opening_hours_weekend": "sob. 8:00 - 14:00",
        "phone": "+75 642 01 15",
        "mail": "waga@mpgk.jgora.pl",
        "latitude": 50.88255544749642,
        "longitude": 15.713089639719565
    },
    {
        "id": 73,
        "name": "PSZOK",
        "address": "ul. Piwnonicka 6",
        "zipcode": "62-800",
        "city": "Kalisz",
        "opening_hours": "wt. - śr. 10:00 - 17:00",
        "opening_hours_weekend": "sob. 8:00 - 15:00",
        "phone": "+62 504 97 66",
        "mail": "krm@um.kalisz.pl",
        "latitude": 51.739554559258586,
        "longitude": 18.071957283932875
    },
    {
        "id": 74,
        "name": "PSZOK",
        "address": "ul. Zaopusta 70",
        "zipcode": "40-748",
        "city": "Katowice",
        "opening_hours": "pon. - pt. 6:00 - 17:00",
        "opening_hours_weekend": "sob. 8:00 - 13:00",
        "phone": "668654659",
        "mail": "umowy@mpgk.com.pl",
        "latitude": 50.16723028858264,
        "longitude": 18.97934452619321
    },
    {
        "id": 75,
        "name": "PSZOK",
        "address": "ul. Obroki 136",
        "zipcode": "40-833",
        "city": "Katowice",
        "opening_hours": "pon. - pt. 6:00 - 17:00",
        "opening_hours_weekend": "sob. 8:00 - 13:00",
        "phone": "+32 358 76 00",
        "mail": "umowy@mpgk.com.pl",
        "latitude": 50.26531286647189,
        "longitude": 18.960554344939307
    },
    {
        "id": 76,
        "name": "PSZOK",
        "address": "ul. Milowicka 7A",
        "zipcode": "40-312",
        "city": "Katowice",
        "opening_hours": "pon. - pt. 6:00 - 17:00",
        "opening_hours_weekend": "sob. 8:00 - 13:00",
        "phone": "+32 358 76 71",
        "mail": "umowy@mpgk.com.pl",
        "latitude": 50.29349813456308,
        "longitude": 19.068256209302216
    },
    {
        "id": 77,
        "name": "PSZOK",
        "address": "ul. Bankowa 10",
        "zipcode": "40-007",
        "city": "Katowice",
        "opening_hours": "Tymczasowo zamknięte",
        "opening_hours_weekend": "Tymczasowo zamknięte",
        "phone": "668654659",
        "mail": "umowy@mpgk.com.pl",
        "latitude": 50.25973649446128,
        "longitude": 19.028341516393084
    },
    {
        "id": 78,
        "name": "PSZOK mobilny, Związek Międzygminny CZYSTY REGION",
        "address": "ul. Naftowa 7",
        "zipcode": "47-220",
        "city": "Kędzierzyn-Koźle",
        "opening_hours": "Tymczasowo zamknięte",
        "opening_hours_weekend": "Tymczasowo zamknięte",
        "phone": "+77 488 68 50",
        "mail": "biuro@czysty-region.pl",
        "latitude": 50.34242911294029,
        "longitude": 18.30731796853084
    },
    {
        "id": 79,
        "name": "PSZOK, ZZO OLSZOWA",
        "address": "ul. Bursztynowa 55",
        "zipcode": "63-600",
        "city": "Kępno",
        "opening_hours": "pon. - pt. 7:00 - 18:00",
        "opening_hours_weekend": "sob. - nd. Zamknięte",
        "phone": "+62 782 11 90",
        "mail": "biuro@zzo-olszowa.pl",
        "latitude": 51.3114876782198,
        "longitude": 18.04286226857359
    },
    {
        "id": 80,
        "name": "PSZOK Odrzutownia",
        "address": "ul. Magazynowa 3",
        "zipcode": "25-563",
        "city": "Kielce",
        "opening_hours": "wt. - pt. 10:00 - 18:00",
        "opening_hours_weekend": "sob. 8:00 - 16:00",
        "phone": "609322123",
        "mail": "sekretariat@pgo.kielce.pl",
        "latitude": 50.90230429865041,
        "longitude": 20.6375624397204
    },
    {
        "id": 81,
        "name": "PSZOK, Eko Region Sp. z o.o., Składowisko Odpadów Komunalnych w Gotartowie, Gmina Kluczbork",
        "address": "ul. Gotartów 44A",
        "zipcode": "46-200",
        "city": "Kluczbork",
        "opening_hours": "pon. - pt. 9:00 - 17:00",
        "opening_hours_weekend": "sob. - nd. Zamknięte",
        "phone": "+77 887 54 54",
        "mail": "---",
        "latitude": 51.003717377050705,
        "longitude": 18.207034897394937
    },
    {
        "id": 82,
        "name": "PSZOK, ZOM Sp. z o.o.",
        "address": "ul. Sierpowa (bez numeru)",
        "zipcode": "57-300",
        "city": "Kłodzko",
        "opening_hours": "---",
        "opening_hours_weekend": "---",
        "phone": "+74 647 41 00",
        "mail": "ug@gmina.klodzko.pl",
        "latitude": 50.46029312968041,
        "longitude": 16.63862340148804
    },
    {
        "id": 83,
        "name": "PSZOK",
        "address": "ul. Wrząca Wielka 43",
        "zipcode": "62-600",
        "city": "Koło",
        "opening_hours": "pon. 13:00 - 17:00 i czw. 7:30 - 11:30",
        "opening_hours_weekend": "sob. - nd. Zamknięte",
        "phone": "+63 249 39 98",
        "mail": "---",
        "latitude": 52.26433326121164,
        "longitude": 18.68185638486921
    },
    {
        "id": 84,
        "name": "PSZOK, MZUK Sp. z o.o.",
        "address": "ul. Dąbska 40K",
        "zipcode": "62-600",
        "city": "Koło",
        "opening_hours": "pon. - pt. 7:00 - 15:00",
        "opening_hours_weekend": "sob. - nd. Zamknięte",
        "phone": "+63 272 21 39",
        "mail": "sekretariat@mzuk-kolo.pl",
        "latitude": 52.19917039608034,
        "longitude": 18.650685556963783
    },
    {
        "id": 85,
        "name": "PSZOK, MZZDIOŚ",
        "address": "ul. 6 Dywizji Piechoty 60",
        "zipcode": "78-100",
        "city": "Kołobrzeg",
        "opening_hours": "---",
        "opening_hours_weekend": "---",
        "phone": "+94 353 32 30",
        "mail": "sekretariat@zielen.kolobrzeg.pl",
        "latitude": 54.15688581992554,
        "longitude": 15.566428455208092
    },
    {
        "id": 86,
        "name": "PSZOK, RIPOK",
        "address": "ul. Wspólna 1",
        "zipcode": "78-100",
        "city": "Korzyścienko",
        "opening_hours": "pon. - pt. 10:00 - 18:00",
        "opening_hours_weekend": "sob. 10:00 - 16:00",
        "phone": "+94 35 51 536",
        "mail": "---",
        "latitude": 54.161167847171754,
        "longitude": 15.517892043150948
    },
    {
        "id": 87,
        "name": "PSZOK, Związek Międzygminny Centrum Zagospodarowania Odpadów Komunalnych - SELEKT, Bonikowo, (dawne składowisko odpadów)",
        "address": "ul. Bonikowo",
        "zipcode": "78-100",
        "city": "Kościan",
        "opening_hours": "pon. - pt. 10:00 - 18:00",
        "opening_hours_weekend": "sob. 10:00 - 16:00",
        "phone": "533874041",
        "mail": "---",
        "latitude": 54.158515619183866,
        "longitude": 15.525507355208187
    },
    {
        "id": 88,
        "name": "PSZOK, PGKiM Sp z o.o.",
        "address": "ul. Sulańska 13",
        "zipcode": "62-510",
        "city": "Konin",
        "opening_hours": "pon. - pt. 6:00 - 21:30",
        "opening_hours_weekend": "sob. 6:00 - 13:30",
        "phone": "+63 246 81 79",
        "mail": "bok@mzgok.konin.pl",
        "latitude": 52.279596427993006,
        "longitude": 18.277617626287082
    },
    {
        "id": 89,
        "name": "PSZOK, PGKiM Sp z o.o.",
        "address": "ul. M. Dąbrowskiej 8",
        "zipcode": "62-500",
        "city": "Konin",
        "opening_hours": "pon. - pt. 7:00 - 15:00",
        "opening_hours_weekend": "sob. - nd. Zamknięte",
        "phone": "+63 242 82 76",
        "mail": "bok@mzgok.konin.pl",
        "latitude": 52.209249669634154,
        "longitude": 18.232793970459127
    },
    {
        "id": 90,
        "name": "PSZOK, PGK Sp. z o.o.",
        "address": "ul. Komunalna 5",
        "zipcode": "75-724",
        "city": "Koszalin",
        "opening_hours": "pon. - pt. 6:30 - 14:30",
        "opening_hours_weekend": "sob. - nd. Zamknięte",
        "phone": "+94 348 44 44",
        "mail": "pgk@pgkkoszalin.pl",
        "latitude": 54.18195045569386,
        "longitude": 16.196718628797413
    },
    {
        "id": 91,
        "name": "PSZOK, SUEZ PÓŁNOC Sp. z o.o.",
        "address": "ul. Przemysłowa 9A",
        "zipcode": "83-400",
        "city": "Kościerzyna",
        "opening_hours": "pon. - czw. 13:00 - 17:00",
        "opening_hours_weekend": "pt. 8:00 - 15:00",
        "phone": "885117896",
        "mail": "sekretariat@zgwierzyca.pl",
        "latitude": 54.12368883502895,
        "longitude": 18.004061897536534
    },
    {
        "id": 92,
        "name": "PSZOK, KGK Sp z o.o.",
        "address": "ul. Chartowa (bez numeru)",
        "zipcode": "26-900",
        "city": "Kozienice",
        "opening_hours": "pon. - pt. 7:00 - 18:00",
        "opening_hours_weekend": "sob. 8:00 - 19:00",
        "phone": "+48 614 24 03",
        "mail": "biuro@kgkkozienice.pl",
        "latitude": 51.574073807826565,
        "longitude": 21.554740897420384
    },
    {
        "id": 93,
        "name": "PSZOK, Lamusownia, MPO Sp z o.o.",
        "address": "ul. Nowohucka 1D",
        "zipcode": "31-580",
        "city": "Kraków",
        "opening_hours": "pon. - pt. 10:00 - 18:00",
        "opening_hours_weekend": "sob. 7:30 - 18:00",
        "phone": "+12 646 23 70",
        "mail": "lamusownia@mpo.krakow.pl",
        "latitude": 50.07116852997596,
        "longitude": 20.007054368518993
    },
    {
        "id": 94,
        "name": "PSZOK, Centrum Ekologiczne Barycz",
        "address": "ul. Krzemieniecka 40",
        "zipcode": "32-020",
        "city": "Kraków",
        "opening_hours": "pon. - pt. 6:30 - 18:00",
        "opening_hours_weekend": "sob. 6:30 - 14:00",
        "phone": "+12 278 30 81",
        "mail": "lamusownia@mpo.krakow.pl",
        "latitude": 49.98364301161936,
        "longitude": 20.007629447671622
    },
    {
        "id": 95,
        "name": "PSZOK MPGiK Sp zo.o.",
        "address": "ul. Białobrzeska 108",
        "zipcode": "38-400",
        "city": "Krosno",
        "opening_hours": "pon. - pt. 9:00 - 19:00",
        "opening_hours_weekend": "sob. 8:00 - 14:00",
        "phone": "+13 474 81 23",
        "mail": "poczta@khk.krosno.pl",
        "latitude": 49.71085522247558,
        "longitude": 21.7605958973384
    },
    {
        "id": 96,
        "name": "PSZOK, POM EKO Sp z o.o.",
        "address": "ul. Rzemiechów 23",
        "zipcode": "63-740",
        "city": "Krotoszyn",
        "opening_hours": "pon. - pt. 9:00 - 16:00",
        "opening_hours_weekend": "sob. 9:00 - 14:00",
        "phone": "+62 767 23 30",
        "mail": "biuro@eko.kalisz.pl",
        "latitude": 51.70252344517712,
        "longitude": 17.258813315208137
    },
    {
        "id": 97,
        "name": "PSZOK, Tonsmeier Centrum Sp. z o. o.",
        "address": "ul. Łąkoszyńska 127",
        "zipcode": "99-300",
        "city": "Kutno",
        "opening_hours": "pon. - pt. 8:00 - 16:00",
        "opening_hours_weekend": "sob. - nd. Zamknięte",
        "phone": "+24 254 29 86",
        "mail": "service.centrum@prezero.com",
        "latitude": 52.21086191703374,
        "longitude": 19.384716312789063
    },
    {
        "id": 98,
        "name": "PSZOK, ZUO Sp. z o.o.",
        "address": "ul.Owcza 7",
        "zipcode": "82-500",
        "city": "Kwidzyń",
        "opening_hours": "pon. - pt. 8:00 - 16:00",
        "opening_hours_weekend": "sob. - nd. Zamknięte",
        "phone": "+55 261 22 02",
        "mail": "biuro@zuo.kwidzyn.pl",
        "latitude": 53.74328446776104,
        "longitude": 18.946916177080432
    },
    {
        "id": 99,
        "name": "PSZOK, Przedsiębiorstwo Energetyki Cieplnej",
        "address": "ul. Gen. Władysława Sikorskiego",
        "zipcode": "05-120",
        "city": "Legionowo",
        "opening_hours": "pon. i czw. 12:00 - 18:00",
        "opening_hours_weekend": "sob. 8:00 - 14:00",
        "phone": "+22 774 20 31",
        "mail": "kancelaria@um.legionowo.pl",
        "latitude": 52.41977753799495,
        "longitude": 20.936181022024904
    },
    {
        "id": 100,
        "name": "PSZOK, LPGK Sp z o.o.",
        "address": "ul. Rzeszotarska 48",
        "zipcode": "59-220",
        "city": "Legnica",
        "opening_hours": "pon. - pt. 7:00 - 17:00",
        "opening_hours_weekend": "sob. 7:00 - 15:00",
        "phone": "+76 856 63 43",
        "mail": "biuro@lpgk.pl",
        "latitude": 51.239348322717866,
        "longitude": 16.179969268570396
    },
    {
        "id": 101,
        "name": "PSZOK, LPGK Sp z o.o.",
        "address": "ul. Nowodworska 48",
        "zipcode": "59-220",
        "city": "Legnica",
        "opening_hours": "pon. - czw. 9:00 - 13:00",
        "opening_hours_weekend": "sob. - nd. Zamknięte",
        "phone": "+76 856 63 40",
        "mail": "biuro@lpgk.pl",
        "latitude": 51.18317140972554,
        "longitude": 16.158691599321017
    }
    
]
