[
    {
        "id": 0,
        "name": "PSZOK, ZGK Sp. z o.o.",
        "address": "ul. Biała Droga(bez numeru)",
        "zipcode": "34-120",
        "city": "Andrychów",
        "opening_hours": "pon. - pt. 7:00 - 17:00",
        "opening_hours_weekend": "sob. Czynne całą dobę",
        "phone": "+33 875 36 61",
        "mail": "zgk@zgk.andrychow.pl",
        "latitude": 49.8688,
        "longitude": 19.3270
    },
    {
        "id": 1,
        "name": "PSZOK",
        "address": "ul. Komunalna 3",
        "zipcode": "16-300",
        "city": "Augustów",
        "opening_hours": "pon. - pt. 11:00 - 18:00",
        "opening_hours_weekend": "sob. 10:00 - 14:00",
        "phone": "+87 643 24 60",
        "mail": "sekretariat@necko.com.pl",
        "latitude": 53.856906076000385,
        "longitude": 23.00878990741214
    },
    {
        "id": 2,
        "name": "PSZOK, ZGO Sp. z o.o.",
        "address": "Zbożowa 8",
        "zipcode": "11-200",
        "city": "Bartoszyce",
        "opening_hours": "pon. - pt. 8:00 - 16:00",
        "opening_hours_weekend": "sob. 9:00 - 15:00",
        "phone": "+89 761 06 50",
        "mail": "zgo@zgobartoszyce.pl",
        "latitude": 54.2670468558291,
        "longitude": 20.801652543563566
    },
    {
        "id": 3,
        "name": "PSZOK, Eko-Region Sp. z o.o.",
        "address": "ul. Przemysłowa 14",
        "zipcode": "97-400",
        "city": "Bełchatów",
        "opening_hours": "pon. - pt. 9:00 - 18:00",
        "opening_hours_weekend": "sob. - nd. Zamknięte",
        "phone": "+44 635 37 12",
        "mail": "sekretariat@eko-region.pl",
        "latitude": 51.348398989780335,
        "longitude": 19.3845788778016
    },
    {
        "id": 4,
        "name": "PSZOK, Zakład Zagospodarowania Odpadów",
        "address": "ul. Ekologiczna 1",
        "zipcode": "21-500",
        "city": "Biała Podlaska",
        "opening_hours": "pon. - pt. 7:00 - 16:00",
        "opening_hours_weekend": "sob. 7:00 - 15:00",
        "phone": "724 594 994",
        "mail": "sekretariatzzo@bwikwodkan.pl",
        "latitude": 52.05400291670839,
        "longitude": 23.200667762493083
    },
    {
        "id": 5,
        "name": "PSZOK, Komunalnik Sp z o.o.",
        "address": "ul. Rzeźnianej 31",
        "zipcode": "21-500",
        "city": "Biała Podlaska",
        "opening_hours": "pon. - pt. 7:00 - 17:00",
        "opening_hours_weekend": "sob. 7:00 - 15:00",
        "phone": "+83 343 46 91",
        "mail": "biuro@komunalnik.pl",
        "latitude": 52.040652350756055,
        "longitude": 23.122767683949295
    },
    {
        "id": 6,
        "name": "PSZOK(baza PUK Serwis Spółka z o.o w Siedlcach)",
        "address": "ul. Brzeska 110",
        "zipcode": "08-110",
        "city": "Siedlce",
        "opening_hours": "pon. - pt. 7:00 - 16:00",
        "opening_hours_weekend": "sob. - nd. Zamknięte",
        "phone": "+25 632 84 01",
        "mail": "puk@puk.siedlce.pl",
        "latitude": 52.15634773188629,
        "longitude": 22.294306593178057
    },
    {
        "id": 7,
        "name": "PSZOK, Ład-San S.C.",
        "address": "ul. Fabryczna 6",
        "zipcode": "78-200",
        "city": "Białogard",
        "opening_hours": "pon. - pt. 10:00 - 18:00",
        "opening_hours_weekend": "sob. 9:00 - 12:00",
        "phone": "+94 312 32 13",
        "mail": "ladsan@poczta.internetdsl.pl",
        "latitude": 54.00388438948339,
        "longitude": 15.976271926366001
    },
    {
        "id": 8,
        "name": "PSZOK, ZUOK w Hryniewiczach",
        "address": "Hryniewicze",
        "zipcode": "16-061",
        "city": "Białystok",
        "opening_hours": "pon. - pt. 7:00 - 18:00",
        "opening_hours_weekend": "sob. 7:00 - 15:00",
        "phone": "+85 678 49 95",
        "mail": "biuro@lech.net.pl",
        "latitude": 53.065805269875796,
        "longitude": 23.14625243416712
    },
    {
        "id": 9,
        "name": "PSZOK, MPO Sp z o.o.",
        "address": "ul. 42 Pułku Piechoty 48",
        "zipcode": "15-950",
        "city": "Białystok",
        "opening_hours": "pon. - pt. 6:00 - 18:00",
        "opening_hours_weekend": "sob. 6:00 - 14:00",
        "phone": "+85 676 83 00",
        "mail": "sekretariat@mpo.bialystok.pl",
        "latitude": 53.142258478679025,
        "longitude": 23.211401897491292
    },
    {
        "id": 10,
        "name": "PSZOK, Przedsiębiorstwo Komunalne Sp z o.o.",
        "address": "ul. Studziwodzka 37",
        "zipcode": "17-100",
        "city": "Bielsk Podlaski",
        "opening_hours": "wt. - pt. 10:00 - 18:00",
        "opening_hours_weekend": "sob. 10:00 - 18:00",
        "phone": "+85 731 82 11",
        "mail": "pk@pkbielsk.pl",
        "latitude": 52.754248362037735,
        "longitude": 23.18861452348482
    },
    {
        "id": 11,
        "name": "PSZOK, ZGO S.A.",
        "address": "ul. Krakowska 315D",
        "zipcode": "43-300",
        "city": "Bielsko-Biała",
        "opening_hours": "pon. - pt. 6:30 - 19:00",
        "opening_hours_weekend": "sob. 8:00 - 16:00",
        "phone": "+33 829 75 90",
        "mail": "poczta@zgo.bielsko.pl",
        "latitude": 49.8271689503606,
        "longitude": 19.09477646850846
    },
    {
        "id": 12,
        "name": "PSZOK",
        "address": "ul. Straconki 1",
        "zipcode": "43-300",
        "city": "Bielsko-Biała",
        "opening_hours": "pon. - pt. 9:00 - 16:00",
        "opening_hours_weekend": "sob. 9:00 - 16:00",
        "phone": "600 556 036",
        "mail": "poczta@zgo.bielsko.pl",
        "latitude": 49.802398796145916,
        "longitude": 19.053265568507264
    },
    {
        "id": 13,
        "name": "PSZOK LAMUSOWNIA, PGK Sp. z o.o.",
        "address": "ul. Krzeszowska 65B",
        "zipcode": "23-400",
        "city": "Biłgoraj",
        "opening_hours": "wt. - pt. 10:00 - 18:00",
        "opening_hours_weekend": "sob. 7:00 - 15:00",
        "phone": "+84 686 54 10",
        "mail": "brak",
        "latitude": 50.521272620765906,
        "longitude": 22.69231219737374
    },
    {
        "id": 14,
        "name": "PSZOK , BZUK Sp. z o. o.",
        "address": "ul. 20go Stycznia 46",
        "zipcode": "32-700",
        "city": "Bochnia",
        "opening_hours": "pon. - pt. 7:00 - 15:00",
        "opening_hours_weekend": "sob. - nd. Zamknięte",
        "phone": "+14 611 80 19",
        "mail": "bzuk@bochnia.pl",
        "latitude": 49.98046126548859,
        "longitude": 20.434245034544837
    },
    {
        "id": 15,
        "name": "PSZOK, GPO Sp. z o.o.",
        "address": "ul. Zgorzelecka 9",
        "zipcode": "59-920",
        "city": "Bogatynia",
        "opening_hours": "pon. - pt. 8:00 - 16:00",
        "opening_hours_weekend": "sob. 7:00 - 15:00",
        "phone": "+75 77 32 028",
        "mail": "gpo@gpobogatynia.pl",
        "latitude": 50.92168081281677,
        "longitude": 14.953033668444471
    },
    {
        "id": 16,
        "name": "PSZOK Łąka",
        "address": "ul. Łąka 2P",
        "zipcode": "59-700",
        "city": "Bolesławiec",
        "opening_hours": "wt. - czw. 10:00 - 18:00",
        "opening_hours_weekend": "sob. 10:00 - 18:00",
        "phone": "757323221",
        "mail": "urzadgminy@gminaboleslawiec.pl",
        "latitude": 51.28619983263866,
        "longitude": 15.573232297407458
    },
    {
        "id": 17,
        "name": "PSZOK, MZGK Sp z o.o.",
        "address": "ul. St. Staszica 6",
        "zipcode": "59-700",
        "city": "Bolesławiec",
        "opening_hours": "pon. - pt. 7:00 - 15:00",
        "opening_hours_weekend": "sob. - nd. Zamknięte",
        "phone": "+75 734 62 71",
        "mail": "mzgk@mzgk.com.pl",
        "latitude": 51.267867458942774,
        "longitude": 15.563167668571642
    },
    {
        "id": 18,
        "name": "PSZOK, Stacja Przeładunkowa Odpadów Komunalnych",
        "address": "ul. Stefczyka",
        "zipcode": "14-500",
        "city": "Braniewo",
        "opening_hours": "pon. - pt. 7:00 - 14:30",
        "opening_hours_weekend": "sob. - nd. Zamknięte",
        "phone": "+55 243 59 42",
        "mail": "sekretariat@zuoelblag.pl",
        "latitude": 54.35791818238887,
        "longitude": 19.830711491836134
    },
    {
        "id": 19,
        "name": "PSZOK Empegieka Sp. z o.o.",
        "address": "ul. Morska 55",
        "zipcode": "14-500",
        "city": "Braniewo",
        "opening_hours": "pon. - pt. 7:00 - 15:00",
        "opening_hours_weekend": "sob. - nd. Zamknięte",
        "phone": "+55 243 29 17",
        "mail": "sprzedaz@empegieka.com.pl",
        "latitude": 54.38673557757139,
        "longitude": 19.813148097548773
    },
    {
        "id": 20,
        "name": "PSZOK MSK",
        "address": "ul. Ustronie 20C",
        "zipcode": "87-300",
        "city": "Brodnica",
        "opening_hours": "pon. - pt. 7:00 - 17:00",
        "opening_hours_weekend": "sob. - nd. Zamknięte",
        "phone": "+56 498 35 79",
        "mail": "brak",
        "latitude": 53.23372882872663,
        "longitude": 19.377430668660388
    },
    {
        "id": 21,
        "name": "PSZOK, PGK Sp. z o.o.",
        "address": "ul. Gajdy 13",
        "zipcode": "87-300",
        "city": "Brodnica",
        "opening_hours": "pon. - pt. 7:00 - 15:00",
        "opening_hours_weekend": "sob. - nd. Zamknięte",
        "phone": "+56 498 30 73",
        "mail": "sekretariat@pgk.com.pl",
        "latitude": 53.26053664325662,
        "longitude": 19.40974282448634
    },
    {
        "id": 22,
        "name": "PSZOK, Spółdzielnia Mieszkaniowa",
        "address": "ul. Witosa 12",
        "zipcode": "87-300",
        "city": "Brodnica",
        "opening_hours": "pon. - pt. 7:00 - 15:00",
        "opening_hours_weekend": "sob. - nd. Zamknięte",
        "phone": "+56 498 77 63",
        "mail": "smbrodnica@adf.pl",
        "latitude": 53.24448455692183,
        "longitude": 19.412293208385954
    },
    {
        "id": 23,
        "name": "PSZOK, ZHK Sp z o.o.",
        "address": "ul. Saperska 1",
        "zipcode": "49-300",
        "city": "Brzeg",
        "opening_hours": "wt. - pt. 10:00 - 17:00",
        "opening_hours_weekend": "sob. 10:00 - 12:00",
        "phone": "+77 416 26 77",
        "mail": "sekretariat@zhkbrzeg.com.pl",
        "latitude": 50.85168193107476,
        "longitude": 17.49712992437801
    },
    {
        "id": 24,
        "name": "PSZOK, BZK Sp z o.o.",
        "address": "ul. Przemysłowa 11",
        "zipcode": "32-800",
        "city": "Brzesko",
        "opening_hours": "pon. - pt. 7:00 - 15:00",
        "opening_hours_weekend": "sob. - nd. Zamknięte",
        "phone": "+14 663 17 63",
        "mail": "zarzad@bzk.com.pl",
        "latitude": 49.97276484199822,
        "longitude": 20.62183318437629
    },
    {
        "id": 25,
        "name": "PSZOK, ProNatura Sp. z o.o.",
        "address": "ul. Ołowiana 43",
        "zipcode": "85-461",
        "city": "Bydgoszcz",
        "opening_hours": "pon. - pt. 8:00 - 20:00",
        "opening_hours_weekend": "sob. 8:00 - 20:00",
        "phone": "+52 506 59 23",
        "mail": "odpady@um.bydgoszcz.pl",
        "latitude": 53.14878833773399,
        "longitude": 17.897527568656553
    },
    {
        "id": 26,
        "name": "PSZOK, ProNatura Sp. z o.o.",
        "address": "ul. Inwalidów",
        "zipcode": "85-727",
        "city": "Bydgoszcz",
        "opening_hours": "pon. - pt. 8:00 - 20:00",
        "opening_hours_weekend": "sob. 8:00 - 20:00",
        "phone": "+52 506 59 25",
        "mail": "odpady@um.bydgoszcz.pl",
        "latitude": 53.13230244659664,
        "longitude": 18.061184763184148
    },
    {
        "id": 27,
        "name": "PSZOK, BPK Sp. z o.o.",
        "address": "al. Jana Pawła II 10",
        "zipcode": "41-900",
        "city": "Bytom",
        "opening_hours": "wt. - pt. 11:00 - 18:00",
        "opening_hours_weekend": "sob. 9:00 - 13:00",
        "phone": "668 645 417",
        "mail": "bpk@bpk.pl",
        "latitude": 50.3505,
        "longitude": 18.9423
    },
    {
        "id": 28,
        "name": "PSZOK, Elwoz Sp. z o.o.",
        "address": "ul. Wybickiego 4A",
        "zipcode": "77-100",
        "city": "Bytów",
        "opening_hours": "wt. oraz czw. 10:00 - 17:00",
        "opening_hours_weekend": "sob. 8:00 - 15:00",
        "phone": "+59 882 20 71",
        "mail": "urzad@bytow.com.pl",
        "latitude": 54.185777859861034,
        "longitude": 17.492361645100466
    },
    {
        "id": 29,
        "name": "PSZOK, MPK Sp. z o.o.",
        "address": "ul. Bieławin 5",
        "zipcode": "22-100",
        "city": "Chełm",
        "opening_hours": "pon. - pt. 8:00 - 16:00",
        "opening_hours_weekend": "sob. 7:00 - 14:00",
        "phone": "+82 565 60 05",
        "mail": "mpgk@mpgkchelm.pl",
        "latitude": 51.14805816855584,
        "longitude": 23.474090984516867
    },
    {
        "id": 30,
        "name": "PSZOK, ZZO Nowy Dwór Sp. z o.o.",
        "address": "ul. Nowy Dwór 35",
        "zipcode": "89-620",
        "city": "Chojnice",
        "opening_hours": "pon. - pt. 6:00 - 16:00",
        "opening_hours_weekend": "sob. - nd. Zamknięte",
        "phone": "+52 398 78 46",
        "mail": "sekretariat@zzonowydwor.pl",
        "latitude": 53.64287293261023,
        "longitude": 17.56143109751432
    },
    {
        "id": 31,
        "name": "PSZOK, SORCIK",
        "address": "ul. Bytkowska 15",
        "zipcode": "41-503",
        "city": "Chorzów",
        "opening_hours": "pon. - pt. 10:00 - 18:00",
        "opening_hours_weekend": "sob. 10:00 - 16:00",
        "phone": "+32 416 50 00",
        "mail": "odpady@chorzow.eu",
        "latitude": 50.30477927156794,
        "longitude": 18.978705168529196
    },
    {
        "id": 32,
        "name": "PSZOK, MZGK Sp. z o.o.",
        "address": "ul. Stara Huta 5",
        "zipcode": "32-500",
        "city": "Chrzanów",
        "opening_hours": "wt. - pt. 11:30 - 18:00",
        "opening_hours_weekend": "sob. 7:30 - 14:00",
        "phone": "533566201",
        "mail": "sekretariat@zmgk.chrzanow.pl",
        "latitude": 50.133808971418276,
        "longitude": 19.397615997342385
    },
    {
        "id": 33,
        "name": "PSZOK, PUK Sp. z o.o.",
        "address": "ul. Gostkowska 83",
        "zipcode": "06-400",
        "city": "Ciechanów",
        "opening_hours": "pon. - pt. 7:00 - 15:00",
        "opening_hours_weekend": "sob. - nd. Zamknięte",
        "phone": "+23 672 22 42",
        "mail": "puk@pukciechanow.pl",
        "latitude": 52.89762537049843,
        "longitude": 20.624176962568598
    },
    {
        "id": 34,
        "name": "PSZOK, ZGK w Cieszynie Sp. z o.o.",
        "address": "ul. Motokrosowa 27",
        "zipcode": "43-400",
        "city": "Cieszyn",
        "opening_hours": "pon. - pt. 6:00 - 16:00",
        "opening_hours_weekend": "sob. - nd. Zamknięte",
        "phone": "795599677",
        "mail": "zgk@zgk.cieszyn.pl",
        "latitude": 49.775231157453796,
        "longitude": 18.61007644651298
    },
    {
        "id": 35,
        "name": "PSZOK, PGO Cortex- II Sp z o.o.",
        "address": "ul. Szyb Jana 1H",
        "zipcode": "41-250",
        "city": "Czeladź",
        "opening_hours": "pon. - pt. 6:30 - 14:30",
        "opening_hours_weekend": "sob. - nt. Zamknięte",
        "phone": "+32 265 93 37",
        "mail": "cortex@cortex.pl",
        "latitude": 50.30586199383028,
        "longitude": 19.058495506210207
    },
    {
        "id": 36,
        "name": "SPSZOK, CPK Sp. z o.o. w Sobuczynie,",
        "address": "ul. Konwaliowa 1",
        "zipcode": "42-263",
        "city": "Częstochowa",
        "opening_hours": "pon. - pt. 6:00 - 18:00",
        "opening_hours_weekend": "sob. 6:00 - 16:00",
        "phone": "+34 327 53 20",
        "mail": "sekretariat@czpk.czest.pl",
        "latitude": 50.73142338064782,
        "longitude": 19.103082826208382
    },
    {
        "id": 37,
        "name": "PSZOK, Eko-Punkt",
        "address": "ul. Szałasowizna 7",
        "zipcode": "42-530",
        "city": "Dąbrowa Górnicza",
        "opening_hours": "pon. - pt. 10:00 - 18:00",
        "opening_hours_weekend": "sob. - nd. Zamknięte",
        "phone": "728320775",
        "mail": "sekretariat@mzgodg.pl",
        "latitude": 50.30407500768003,
        "longitude": 19.283693873764737
    },
    {
        "id": 38,
        "name": "PSZOK, MZGO Sp zo.o.",
        "address": "al. Piłsudskiego 28A",
        "zipcode": "41-303",
        "city": "Dąbrowa Górnicza",
        "opening_hours": "pon. - pt. 7:00 - 15:00",
        "opening_hours_weekend": "sob. - nd. Zamknięte",
        "phone": "+32 264 46 23",
        "mail": "sekretariat@mzgodg.pl",
        "latitude": 50.3296741435413,
        "longitude": 19.22080846825689
    },
    {
        "id": 39,
        "name": "PSZOK, ZUM w Dębicy Sp z o.o.",
        "address": "ul. Drogowców 13",
        "zipcode": "39-200",
        "city": "Dębica",
        "opening_hours": "pon. - pt. 8:00 - 18:00",
        "opening_hours_weekend": "sob. 8:00 - 16:00",
        "phone": "+14 681 64 86",
        "mail": "---",
        "latitude": 50.060471383721044,
        "longitude": 21.436184197338704
    },
    {
        "id": 40,
        "name": "PSZOK, ZUO Sp. z o.o.",
        "address": "ul. Mazurska 42",
        "zipcode": "82-300",
        "city": "Elbląg",
        "opening_hours": "pon. - pt. 6:00 - 17:30",
        "opening_hours_weekend": "sob. 6:00 - 13:30",
        "phone": "+55 236 12 25",
        "mail": "sekretariat@zuoelblag.pl",
        "latitude": 54.20708309513335,
        "longitude": 19.393738726387603
    },
    {
        "id": 41,
        "name": "PSZOK, PUK Sp. z o.o.",
        "address": "ul. Suwalska 38",
        "zipcode": "19-300",
        "city": "Ełk",
        "opening_hours": "pon. - pt. 7:00 - 15:00",
        "opening_hours_weekend": "sob. - nt. Zamknięte",
        "phone": "+87 610 44 54",
        "mail": "sekretariat@puk.elk.pl",
        "latitude": 53.829020621300394,
        "longitude": 22.373311688361945
    },
    {
        "id": 42,
        "name": "PSZOK, PGO Eko-MAZURY Sp. z o.o.",
        "address": "ul. Siedliska 77",
        "zipcode": "19-300",
        "city": "Ełk",
        "opening_hours": "pon. - pt. 7:00 - 15:00",
        "opening_hours_weekend": "sob. 11:00 - 13:00",
        "phone": "+87 621 01 01",
        "mail": "eko-mazury@elk.com.pl",
        "latitude": 53.84763896026292,
        "longitude": 22.321802270549522
    },
    {
        "id": 43,
        "name": "PSZOK, ZU Sp. z o.o.",
        "address": "ul. Jabłoniowa 55",
        "zipcode": "80-180",
        "city": "Gdańsk",
        "opening_hours": "pon. - pt. 6:00 - 18:00",
        "opening_hours_weekend": "sob. 6:00 - 14:00",
        "phone": "+58 524 45 00",
        "mail": "zut@zut.com.pl",
        "latitude": 54.32231641526775,
        "longitude": 18.54079596871067
    },
    {
        "id": 44,
        "name": "PSZOK",
        "address": "ul. Konwaliowa 1",
        "zipcode": "81-651",
        "city": "Gdynia Witomino",
        "opening_hours": "pon. - pt. 14:00 - 18:00",
        "opening_hours_weekend": "sob. - nd. Zamknięte",
        "phone": "609045410",
        "mail": "dgo@kzg.pl",
        "latitude": 54.50049193303436,
        "longitude": 18.514949111048935
    },
    {
        "id": 45,
        "name": "PSZOK",
        "address": "ul. Chylońska 301",
        "zipcode": "81-016",
        "city": "Gdynia Cisowa",
        "opening_hours": "pon. i śr. 14:00 - 17:00",
        "opening_hours_weekend": "sob. 11:00 - 15:00",
        "phone": "609045410",
        "mail": "dgo@kzg.pl",
        "latitude": 54.548677748715725,
        "longitude": 18.43445740305461
    },
    {
        "id": 46,
        "name": "PSZOK",
        "address": "ul. Żeliwna 3",
        "zipcode": "81-159",
        "city": "Gdynia Podgórze",
        "opening_hours": "wt. i czw. 14:00 - 17:00",
        "opening_hours_weekend": "sob. 11:00 - 15:00",
        "phone": "609045410",
        "mail": "dgo@kzg.pl",
        "latitude": 54.55578852162331,
        "longitude": 18.49309872726496
    },
    {
        "id": 47,
        "name": "PSZOK",
        "address": "ul.Nałkowskiej 20",
        "zipcode": "81-590",
        "city": "Gdynia Karwiny",
        "opening_hours": "wt. i czw. 14:00 - 17:00",
        "opening_hours_weekend": "sob. 10:00 - 14:00",
        "phone": "+58 772 35 00",
        "mail": "wyrzucamto@gdynia.pl",
        "latitude": 54.47436977264046,
        "longitude": 18.50155519755282
    },
    {
        "id": 48,
        "name": "PSZOK",
        "address": "ul. Kasztanowa 4A",
        "zipcode": "81-515",
        "city": "Gdynia Orłowo",
        "opening_hours": "pon. - pt. 12:00 - 15:00",
        "opening_hours_weekend": "sob. - nd. Zamknięte",
        "phone": "609045410",
        "mail": "dgo@kzg.pl",
        "latitude": 54.48388200536768,
        "longitude": 18.546582168718203
    },
    {
        "id": 49,
        "name": "PSZOK",
        "address": "ul. Zielona 3",
        "zipcode": "11-520",
        "city": "Ryn",
        "opening_hours": "śr. 14:00 - 17:00",
        "opening_hours_weekend": "sob. 9:00 - 12:00",
        "phone": "660470540",
        "mail": "---",
        "latitude": 53.93890747246962,
        "longitude": 21.552079297527822
    },
    {
        "id": 50,
        "name": "PSZOK",
        "address": "ul. Sienkiewicza 24",
        "zipcode": "11-600",
        "city": "Węgorzewo",
        "opening_hours": "pon. - pt. 9:00 - 18:00",
        "opening_hours_weekend": "sob. 9:00 - 14:00",
        "phone": "660470540",
        "mail": "pszok@zuokspytkowo.pl",
        "latitude": 54.21525624615481,
        "longitude": 21.74990112637577
    },
    {
        "id": 51,
        "name": "PSZOK",
        "address": "ul. Wierzbińska 2",
        "zipcode": "12-250",
        "city": "Orzysz",
        "opening_hours": "wt. i czw. 9:00 - 17:00",
        "opening_hours_weekend": "sob. 8:00 - 14:00",
        "phone": "660470540",
        "mail": "pszok@zuokspytkowo.pl",
        "latitude": 53.804068236532295,
        "longitude": 21.948921826356738
    },
    {
        "id": 52,
        "name": "PSZOK, ZUOK",
        "address": "ul. Spytkowo 69",
        "zipcode": "11-500",
        "city": "Giżycko",
        "opening_hours": "pon. - pt. 7:00 - 15:00",
        "opening_hours_weekend": "sob. - nd. Zamknięte",
        "phone": "660470540",
        "mail": "pszok@zuokspytkowo.pl",
        "latitude": 54.08918837304663,
        "longitude": 21.80289200284266
    },
    {
        "id": 53,
        "name": "PSZOK, PSiUOK Sp. z o.o.",
        "address": "ul. Rybnicka 199B",
        "zipcode": "44-100",
        "city": "Gliwice",
        "opening_hours": "pon. - pt. 8:00 - 18:00",
        "opening_hours_weekend": "sob. 8:00 - 14:00",
        "phone": "668136080",
        "mail": "sekretariat@pzogliwice.pl",
        "latitude": 50.26058377358476,
        "longitude": 18.66569489027003
    },
    {
        "id": 54,
        "name": "PSZOK, GPK- Suez Głogów Sp. z o.o.",
        "address": "ul. Transportowa 6",
        "zipcode": "67-200",
        "city": "Głogów",
        "opening_hours": "pon. - pt. 10:00 - 18:00",
        "opening_hours_weekend": "sob. 8:00 - 16:00",
        "phone": "507727963",
        "mail": "iod@gpkglogow.pl",
        "latitude": 51.6554828718504,
        "longitude": 16.113816597423984
    },
    {
        "id": 55,
        "name": "PSZOK, GPK- Suez Głogów Sp. z o.o.",
        "address": "ul. Przemysłowa 7A",
        "zipcode": "67-200",
        "city": "Głogów",
        "opening_hours": "pon. - pt. 7:00 - 15:00",
        "opening_hours_weekend": "sob. - nd. Zamknięte",
        "phone": "+76 726 56 56",
        "mail": "iod@gpkglogow.pl",
        "latitude": 51.67028612572728,
        "longitude": 16.07200019742468
    },
    {
        "id": 56,
        "name": "PSZOK, ZOM Sp. z o.o.",
        "address": "ul. Osiniec 6",
        "zipcode": "62-200",
        "city": "Gniezno",
        "opening_hours": "wt. - pt. 11:00 - 18:00",
        "opening_hours_weekend": "sob. 8:00 - 14:00",
        "phone": "---",
        "mail": "---",
        "latitude": 52.518569863244075,
        "longitude": 17.614195511158012
    },
    {
        "id": 57,
        "name": "PSZOK, PUK EMPOL Sp z o.o.",
        "address": "ul. Przemysłowa 7",
        "zipcode": "38-300",
        "city": "Gorlice",
        "opening_hours": "pon. - pt. 8:00 - 16:00",
        "opening_hours_weekend": "sob. - nd. Zamknięte",
        "phone": "+18 353 97 93",
        "mail": "---",
        "latitude": 49.68107397410121,
        "longitude": 21.189726874037827
    },
    {
        "id": 58,
        "name": "PSZOK, Związek Celowy Gmin MG-6",
        "address": "ul. Teatralna 49",
        "zipcode": "66-400",
        "city": "Gorzów Wlkp.",
        "opening_hours": "pon. - pt. 7:30 - 15:30",
        "opening_hours_weekend": "sob. - nd. Zamknięte",
        "phone": "+95 728 71 02",
        "mail": "mg6@zcg.net.pl ",
        "latitude": 52.73248029583887,
        "longitude": 15.245243780576077
    },
    {
        "id": 59,
        "name": "PSZOK, Stacja Przeładunkowa Ospadów Komunalnych",
        "address": "ul. Gola (bez numeru)",
        "zipcode": "63-800",
        "city": "Gostyń",
        "opening_hours": "pon. - pt. 7:00 - 18:00",
        "opening_hours_weekend": "sob. 8:00 - 14:00",
        "phone": "506182246",
        "mail": "---",
        "latitude": 51.88444469427335,
        "longitude": 16.94826829743424
    },
    {
        "id": 60,
        "name": "PSZOK (była kompostownia odpadów)",
        "address": "ul. Chrzanów Duży 15A",
        "zipcode": "---",
        "city": "Grodzisk Mazowiecki",
        "opening_hours": "pon. - pt. 7:00 - 18:00",
        "opening_hours_weekend": "sob. 7:00 - 14:00",
        "phone": "+22 724 13 84",
        "mail": "---",
        "latitude": 52.12204861004674,
        "longitude": 20.63029679744491
    },
    {
        "id": 61,
        "name": "PSZOK, MZK Sp. z o.o.",
        "address": "ul. Składowa 21",
        "zipcode": "86-300",
        "city": "Grudziądz",
        "opening_hours": "pon. - pt. 7:00 - 18:00",
        "opening_hours_weekend": "sob. 8:00 - 14:00",
        "phone": "+56 450 42 35",
        "mail": "---",
        "latitude": 53.43954346317246,
        "longitude": 18.720509824494684
    },
    {
        "id": 62,
        "name": "PSZOK, MWiO Sp. z o.o.",
        "address": "ul. Zakurzewo 39A",
        "zipcode": "86-302",
        "city": "Grudziądz",
        "opening_hours": "pon. - pt. 7:00 - 17:00",
        "opening_hours_weekend": "sob. 9:00 - 13:00",
        "phone": "---",
        "mail": "---",
        "latitude": 53.56817246617983,
        "longitude": 18.78583857462226
    },
    {
        "id": 63,
        "name": "PSZOK, F.H.U Grabowiecki Sp z o.o.",
        "address": "ul. Niekładzka 4",
        "zipcode": "72-300",
        "city": "Gryfice",
        "opening_hours": "---",
        "opening_hours_weekend": "---",
        "phone": "---",
        "mail": "---",
        "latitude": 53.92676171881324,
        "longitude": 15.194869414239543
    },
    {
        "id": 64,
        "name": "PSZOK, PGKiM Sp. z o.o.",
        "address": "ul. Krucza 20",
        "zipcode": "22-500",
        "city": "Hrubieszów",
        "opening_hours": "pon. - pt. 10:00 - 18:00",
        "opening_hours_weekend": "sob. 8:00 - 16:00",
        "phone": "+84 535 38 11",
        "mail": "sekretariat@pgkimhrubieszow.pl",
        "latitude": 50.80568249424466,
        "longitude": 23.896472684338356
    },
    {
        "id": 65,
        "name": "PSZOK, PGKiM Sp. z o.o.",
        "address": "ul. Bagienna 77",
        "zipcode": "88-101",
        "city": "Inowrocław",
        "opening_hours": "pon. - pt. 7:30 - 19:00",
        "opening_hours_weekend": "sob. 8:00 - 12:30",
        "phone": "+52 352 76 13",
        "mail": "sekretariat@pgkimino.pl",
        "latitude": 52.758291815069136,
        "longitude": 18.22900578980361
    },
    {
        "id": 66,
        "name": "PSZOK, P.U. Hetman",
        "address": "ul. Turystycznej 38 w Nadarzynie",
        "zipcode": "---",
        "city": "Janki",
        "opening_hours": "pon. - pt. 8:00 - 17:00",
        "opening_hours_weekend": "sob. - nd. Zamknięte",
        "phone": "+22 868 48 20",
        "mail": "boknadarzyn@puhetman.pl",
        "latitude": 52.10500561083136,
        "longitude": 20.808812233949354
    },
    {
        "id": 67,
        "name": "PSZOK, ZGO Sp. z o.o.",
        "address": "ul. im. Mariusza Małynicza 1, Witaszyczki",
        "zipcode": "63-200",
        "city": "Jarocin",
        "opening_hours": "pon. - pt. 6:00 - 21:00",
        "opening_hours_weekend": "sob. 8:00 - 14:00",
        "phone": "+62 747 24 56",
        "mail": "sekretariat@wcr-jarocin.pl",
        "latitude": 51.97189735417873,
        "longitude": 17.536656908509947
    },
    {
        "id": 68,
        "name": "PSZOK, PGKiM Sp. z o.o.",
        "address": "ul. Przemyska 15",
        "zipcode": "37-500",
        "city": "Jarosław",
        "opening_hours": "pon. - pt. 7:00 - 15:00",
        "opening_hours_weekend": "sob. - nd. Zamknięte",
        "phone": "+16 621 25 60",
        "mail": "biuro@pgkimjaroslaw.pl",
        "latitude": 50.017285222611264,
        "longitude": 22.687504410846543
    },
    {
        "id": 69,
        "name": "PSZOK (teren przy zamkniętym składowisku odpadów)",
        "address": "ul. Żniwna 11",
        "zipcode": "38-200",
        "city": "Jasło",
        "opening_hours": "wt. - pt. 9:00 - 18:00",
        "opening_hours_weekend": "sob. 9:00 - 16:00",
        "phone": "+13 445 57 58",
        "mail": "---",
        "latitude": 49.73800473921466,
        "longitude": 21.49988305500961
    },
    {
        "id": 70,
        "name": "PSZOK, PST Transgór S.A.",
        "address": "ul. Norwida 34",
        "zipcode": "44-268",
        "city": "Jastrzębie-Zdrój",
        "opening_hours": "pon. - pt. 7:30 - 17:00",
        "opening_hours_weekend": "sob. 8:00 - 12:00",
        "phone": "+32 755 54 92",
        "mail": "---",
        "latitude": 49.98198582307512,
        "longitude": 18.628782283113928
    },
    {
        "id": 71,
        "name": "PSZOK, MZNK w Jaworznie",
        "address": "ul. Górnośląska 39",
        "zipcode": "43-602",
        "city": "Jaworzno",
        "opening_hours": "pon. - pt. 8:00 - 19:10",
        "opening_hours_weekend": "sob. 8:00 - 13:40",
        "phone": "+32 745 10 72",
        "mail": "sekretariat@mznk.jaworzno.pl",
        "latitude": 50.237432196048125,
        "longitude": 19.271088868526252
    },
    {
        "id": 72,
        "name": "PSZOK, MPGK Sp z o.o.",
        "address": "ul. Wolności 161/163",
        "zipcode": "58-500",
        "city": "Jelenia-Góra",
        "opening_hours": "pon. - pt. 8:00 - 17:30",
        "opening_hours_weekend": "sob. 8:00 - 14:00",
        "phone": "+75 642 01 15",
        "mail": "waga@mpgk.jgora.pl",
        "latitude": 50.88255544749642,
        "longitude": 15.713089639719565
    },
    {
        "id": 73,
        "name": "PSZOK",
        "address": "ul. Piwnonicka 6",
        "zipcode": "62-800",
        "city": "Kalisz",
        "opening_hours": "wt. - śr. 10:00 - 17:00",
        "opening_hours_weekend": "sob. 8:00 - 15:00",
        "phone": "+62 504 97 66",
        "mail": "krm@um.kalisz.pl",
        "latitude": 51.739554559258586,
        "longitude": 18.071957283932875
    },
    {
        "id": 74,
        "name": "PSZOK",
        "address": "ul. Zaopusta 70",
        "zipcode": "40-748",
        "city": "Katowice",
        "opening_hours": "pon. - pt. 6:00 - 17:00",
        "opening_hours_weekend": "sob. 8:00 - 13:00",
        "phone": "668654659",
        "mail": "umowy@mpgk.com.pl",
        "latitude": 50.16723028858264,
        "longitude": 18.97934452619321
    },
    {
        "id": 75,
        "name": "PSZOK",
        "address": "ul. Obroki 136",
        "zipcode": "40-833",
        "city": "Katowice",
        "opening_hours": "pon. - pt. 6:00 - 17:00",
        "opening_hours_weekend": "sob. 8:00 - 13:00",
        "phone": "+32 358 76 00",
        "mail": "umowy@mpgk.com.pl",
        "latitude": 50.26531286647189,
        "longitude": 18.960554344939307
    },
    {
        "id": 76,
        "name": "PSZOK",
        "address": "ul. Milowicka 7A",
        "zipcode": "40-312",
        "city": "Katowice",
        "opening_hours": "pon. - pt. 6:00 - 17:00",
        "opening_hours_weekend": "sob. 8:00 - 13:00",
        "phone": "+32 358 76 71",
        "mail": "umowy@mpgk.com.pl",
        "latitude": 50.29349813456308,
        "longitude": 19.068256209302216
    },
    {
        "id": 77,
        "name": "PSZOK",
        "address": "ul. Bankowa 10",
        "zipcode": "40-007",
        "city": "Katowice",
        "opening_hours": "Tymczasowo zamknięte",
        "opening_hours_weekend": "Tymczasowo zamknięte",
        "phone": "668654659",
        "mail": "umowy@mpgk.com.pl",
        "latitude": 50.25973649446128,
        "longitude": 19.028341516393084
    },
    {
        "id": 78,
        "name": "PSZOK mobilny, Związek Międzygminny CZYSTY REGION",
        "address": "ul. Naftowa 7",
        "zipcode": "47-220",
        "city": "Kędzierzyn-Koźle",
        "opening_hours": "Tymczasowo zamknięte",
        "opening_hours_weekend": "Tymczasowo zamknięte",
        "phone": "+77 488 68 50",
        "mail": "biuro@czysty-region.pl",
        "latitude": 50.34242911294029,
        "longitude": 18.30731796853084
    },
    {
        "id": 79,
        "name": "PSZOK, ZZO OLSZOWA",
        "address": "ul. Bursztynowa 55",
        "zipcode": "63-600",
        "city": "Kępno",
        "opening_hours": "pon. - pt. 7:00 - 18:00",
        "opening_hours_weekend": "sob. - nd. Zamknięte",
        "phone": "+62 782 11 90",
        "mail": "biuro@zzo-olszowa.pl",
        "latitude": 51.3114876782198,
        "longitude": 18.04286226857359
    },
    {
        "id": 80,
        "name": "PSZOK Odrzutownia",
        "address": "ul. Magazynowa 3",
        "zipcode": "25-563",
        "city": "Kielce",
        "opening_hours": "wt. - pt. 10:00 - 18:00",
        "opening_hours_weekend": "sob. 8:00 - 16:00",
        "phone": "609322123",
        "mail": "sekretariat@pgo.kielce.pl",
        "latitude": 50.90230429865041,
        "longitude": 20.6375624397204
    },
    {
        "id": 81,
        "name": "PSZOK, Eko Region Sp. z o.o., Składowisko Odpadów Komunalnych w Gotartowie, Gmina Kluczbork",
        "address": "ul. Gotartów 44A",
        "zipcode": "46-200",
        "city": "Kluczbork",
        "opening_hours": "pon. - pt. 9:00 - 17:00",
        "opening_hours_weekend": "sob. - nd. Zamknięte",
        "phone": "+77 887 54 54",
        "mail": "---",
        "latitude": 51.003717377050705,
        "longitude": 18.207034897394937
    },
    {
        "id": 82,
        "name": "PSZOK, ZOM Sp. z o.o.",
        "address": "ul. Sierpowa (bez numeru)",
        "zipcode": "57-300",
        "city": "Kłodzko",
        "opening_hours": "---",
        "opening_hours_weekend": "---",
        "phone": "+74 647 41 00",
        "mail": "ug@gmina.klodzko.pl",
        "latitude": 50.46029312968041,
        "longitude": 16.63862340148804
    },
    {
        "id": 83,
        "name": "PSZOK",
        "address": "ul. Wrząca Wielka 43",
        "zipcode": "62-600",
        "city": "Koło",
        "opening_hours": "pon. 13:00 - 17:00 i czw. 7:30 - 11:30",
        "opening_hours_weekend": "sob. - nd. Zamknięte",
        "phone": "+63 249 39 98",
        "mail": "---",
        "latitude": 52.26433326121164,
        "longitude": 18.68185638486921
    },
    {
        "id": 84,
        "name": "PSZOK, MZUK Sp. z o.o.",
        "address": "ul. Dąbska 40K",
        "zipcode": "62-600",
        "city": "Koło",
        "opening_hours": "pon. - pt. 7:00 - 15:00",
        "opening_hours_weekend": "sob. - nd. Zamknięte",
        "phone": "+63 272 21 39",
        "mail": "sekretariat@mzuk-kolo.pl",
        "latitude": 52.19917039608034,
        "longitude": 18.650685556963783
    },
    {
        "id": 85,
        "name": "PSZOK, MZZDIOŚ",
        "address": "ul. 6 Dywizji Piechoty 60",
        "zipcode": "78-100",
        "city": "Kołobrzeg",
        "opening_hours": "---",
        "opening_hours_weekend": "---",
        "phone": "+94 353 32 30",
        "mail": "sekretariat@zielen.kolobrzeg.pl",
        "latitude": 54.15688581992554,
        "longitude": 15.566428455208092
    },
    {
        "id": 86,
        "name": "PSZOK, RIPOK",
        "address": "ul. Wspólna 1",
        "zipcode": "78-100",
        "city": "Korzyścienko",
        "opening_hours": "pon. - pt. 10:00 - 18:00",
        "opening_hours_weekend": "sob. 10:00 - 16:00",
        "phone": "+94 35 51 536",
        "mail": "---",
        "latitude": 54.161167847171754,
        "longitude": 15.517892043150948
    },
    {
        "id": 87,
        "name": "PSZOK, Związek Międzygminny Centrum Zagospodarowania Odpadów Komunalnych - SELEKT, Bonikowo, (dawne składowisko odpadów)",
        "address": "ul. Bonikowo",
        "zipcode": "78-100",
        "city": "Kościan",
        "opening_hours": "pon. - pt. 10:00 - 18:00",
        "opening_hours_weekend": "sob. 10:00 - 16:00",
        "phone": "533874041",
        "mail": "---",
        "latitude": 54.158515619183866,
        "longitude": 15.525507355208187
    },
    {
        "id": 88,
        "name": "PSZOK, PGKiM Sp z o.o.",
        "address": "ul. Sulańska 13",
        "zipcode": "62-510",
        "city": "Konin",
        "opening_hours": "pon. - pt. 6:00 - 21:30",
        "opening_hours_weekend": "sob. 6:00 - 13:30",
        "phone": "+63 246 81 79",
        "mail": "bok@mzgok.konin.pl",
        "latitude": 52.279596427993006,
        "longitude": 18.277617626287082
    },
    {
        "id": 89,
        "name": "PSZOK, PGKiM Sp z o.o.",
        "address": "ul. M. Dąbrowskiej 8",
        "zipcode": "62-500",
        "city": "Konin",
        "opening_hours": "pon. - pt. 7:00 - 15:00",
        "opening_hours_weekend": "sob. - nd. Zamknięte",
        "phone": "+63 242 82 76",
        "mail": "bok@mzgok.konin.pl",
        "latitude": 52.209249669634154,
        "longitude": 18.232793970459127
    },
    {
        "id": 90,
        "name": "PSZOK, PGK Sp. z o.o.",
        "address": "ul. Komunalna 5",
        "zipcode": "75-724",
        "city": "Koszalin",
        "opening_hours": "pon. - pt. 6:30 - 14:30",
        "opening_hours_weekend": "sob. - nd. Zamknięte",
        "phone": "+94 348 44 44",
        "mail": "pgk@pgkkoszalin.pl",
        "latitude": 54.18195045569386,
        "longitude": 16.196718628797413
    },
    {
        "id": 91,
        "name": "PSZOK, SUEZ PÓŁNOC Sp. z o.o.",
        "address": "ul. Przemysłowa 9A",
        "zipcode": "83-400",
        "city": "Kościerzyna",
        "opening_hours": "pon. - czw. 13:00 - 17:00",
        "opening_hours_weekend": "pt. 8:00 - 15:00",
        "phone": "885117896",
        "mail": "sekretariat@zgwierzyca.pl",
        "latitude": 54.12368883502895,
        "longitude": 18.004061897536534
    },
    {
        "id": 92,
        "name": "PSZOK, KGK Sp z o.o.",
        "address": "ul. Chartowa (bez numeru)",
        "zipcode": "26-900",
        "city": "Kozienice",
        "opening_hours": "pon. - pt. 7:00 - 18:00",
        "opening_hours_weekend": "sob. 8:00 - 19:00",
        "phone": "+48 614 24 03",
        "mail": "biuro@kgkkozienice.pl",
        "latitude": 51.574073807826565,
        "longitude": 21.554740897420384
    },
    {
        "id": 93,
        "name": "PSZOK, Lamusownia, MPO Sp z o.o.",
        "address": "ul. Nowohucka 1D",
        "zipcode": "31-580",
        "city": "Kraków",
        "opening_hours": "pon. - pt. 10:00 - 18:00",
        "opening_hours_weekend": "sob. 7:30 - 18:00",
        "phone": "+12 646 23 70",
        "mail": "lamusownia@mpo.krakow.pl",
        "latitude": 50.07116852997596,
        "longitude": 20.007054368518993
    },
    {
        "id": 94,
        "name": "PSZOK, Centrum Ekologiczne Barycz",
        "address": "ul. Krzemieniecka 40",
        "zipcode": "32-020",
        "city": "Kraków",
        "opening_hours": "pon. - pt. 6:30 - 18:00",
        "opening_hours_weekend": "sob. 6:30 - 14:00",
        "phone": "+12 278 30 81",
        "mail": "lamusownia@mpo.krakow.pl",
        "latitude": 49.98364301161936,
        "longitude": 20.007629447671622
    },
    {
        "id": 95,
        "name": "PSZOK MPGiK Sp zo.o.",
        "address": "ul. Białobrzeska 108",
        "zipcode": "38-400",
        "city": "Krosno",
        "opening_hours": "pon. - pt. 9:00 - 19:00",
        "opening_hours_weekend": "sob. 8:00 - 14:00",
        "phone": "+13 474 81 23",
        "mail": "poczta@khk.krosno.pl",
        "latitude": 49.71085522247558,
        "longitude": 21.7605958973384
    },
    {
        "id": 96,
        "name": "PSZOK, POM EKO Sp z o.o.",
        "address": "ul. Rzemiechów 23",
        "zipcode": "63-740",
        "city": "Krotoszyn",
        "opening_hours": "pon. - pt. 9:00 - 16:00",
        "opening_hours_weekend": "sob. 9:00 - 14:00",
        "phone": "+62 767 23 30",
        "mail": "biuro@eko.kalisz.pl",
        "latitude": 51.70252344517712,
        "longitude": 17.258813315208137
    },
    {
        "id": 97,
        "name": "PSZOK, Tonsmeier Centrum Sp. z o. o.",
        "address": "ul. Łąkoszyńska 127",
        "zipcode": "99-300",
        "city": "Kutno",
        "opening_hours": "pon. - pt. 8:00 - 16:00",
        "opening_hours_weekend": "sob. - nd. Zamknięte",
        "phone": "+24 254 29 86",
        "mail": "service.centrum@prezero.com",
        "latitude": 52.21086191703374,
        "longitude": 19.384716312789063
    },
    {
        "id": 98,
        "name": "PSZOK, ZUO Sp. z o.o.",
        "address": "ul.Owcza 7",
        "zipcode": "82-500",
        "city": "Kwidzyń",
        "opening_hours": "pon. - pt. 8:00 - 16:00",
        "opening_hours_weekend": "sob. - nd. Zamknięte",
        "phone": "+55 261 22 02",
        "mail": "biuro@zuo.kwidzyn.pl",
        "latitude": 53.74328446776104,
        "longitude": 18.946916177080432
    },
    {
        "id": 99,
        "name": "PSZOK, Przedsiębiorstwo Energetyki Cieplnej",
        "address": "ul. Gen. Władysława Sikorskiego",
        "zipcode": "05-120",
        "city": "Legionowo",
        "opening_hours": "pon. i czw. 12:00 - 18:00",
        "opening_hours_weekend": "sob. 8:00 - 14:00",
        "phone": "+22 774 20 31",
        "mail": "kancelaria@um.legionowo.pl",
        "latitude": 52.41977753799495,
        "longitude": 20.936181022024904
    },
    {
        "id": 100,
        "name": "PSZOK, LPGK Sp z o.o.",
        "address": "ul. Rzeszotarska 48",
        "zipcode": "59-220",
        "city": "Legnica",
        "opening_hours": "pon. - pt. 7:00 - 17:00",
        "opening_hours_weekend": "sob. 7:00 - 15:00",
        "phone": "+76 856 63 43",
        "mail": "biuro@lpgk.pl",
        "latitude": 51.239348322717866,
        "longitude": 16.179969268570396
    },
    {
        "id": 101,
        "name": "PSZOK, LPGK Sp z o.o.",
        "address": "ul. Nowodworska 48",
        "zipcode": "59-220",
        "city": "Legnica",
        "opening_hours": "pon. - czw. 9:00 - 13:00",
        "opening_hours_weekend": "sob. - nd. Zamknięte",
        "phone": "+76 856 63 40",
        "mail": "biuro@lpgk.pl",
        "latitude": 51.18317140972554,
        "longitude": 16.158691599321017
    },
    {
        "id": 102,
        "name": "PSZOK, MZO Sp. z o.o.",
        "address": "ul. Saperska 23",
        "zipcode": "64-100",
        "city": "Leszno",
        "opening_hours": "pon. - pt. 7:00 - 18:00",
        "opening_hours_weekend": "sob. 8:00 - 15:00",
        "phone": "+65 525 92 82",
        "mail": "poczta@mzoleszno.com.pl ",
        "latitude": 51.82813751859908,
        "longitude": 16.58689895325647
    },
    {
        "id": 103,
        "name": "PSZOK",
        "address": "ul. Żeromskiego 6B",
        "zipcode": "84-300",
        "city": "Lębork",
        "opening_hours": "wt. - pt. 9:00 - 17:00",
        "opening_hours_weekend": "sob. 9:00 - 15:00",
        "phone": "691146225",
        "mail": "ochrona@um.lebork.pl",
        "latitude": 54.53064192385,
        "longitude": 17.744045797555465
    },
    {
        "id": 104,
        "name": "PSZOK, ZZO Czysta Błękitna Kraina Sp. z o.o.",
        "address": "ul. Czarnówko 34",
        "zipcode": "84-351",
        "city": "Nowa Wieś Lęborska",
        "opening_hours": "pon. - pt. 7:00 - 16:00",
        "opening_hours_weekend": "sob. 7:00 - 15:00",
        "phone": "+59 862 43 88",
        "mail": "biuro@zzo-czarnowko.pl",
        "latitude": 54.57170804419615,
        "longitude": 17.70278229571211
    },
    {
        "id": 105,
        "name": "PSZOK, FCC Lubliniec Sp z o.o.",
        "address": "ul. Przemysłowa 5",
        "zipcode": "42-700",
        "city": "Lubliniec",
        "opening_hours": "pon. - pt. 7:30 - 15:30",
        "opening_hours_weekend": "sob. - nd. Zamknięte",
        "phone": "602288731",
        "mail": "fcc@fcc-group.pl",
        "latitude": 50.67446717077796,
        "longitude": 18.69016942621551
    },
    {
        "id": 106,
        "name": "PSZOK, ZGiUK Sp z o.o.",
        "address": "ul. Bazaltowa 1",
        "zipcode": "59-800",
        "city": "Lubań",
        "opening_hours": "pon. - pt. 7:00 - 18:00",
        "opening_hours_weekend": "sob. - nd. Zamknięte",
        "phone": "+75 671 12 52",
        "mail": "biuro.obslugi@zgiukluban.pl",
        "latitude": 51.09945198310258,
        "longitude": 15.273550824388956
    },
    {
        "id": 107,
        "name": "PSZOK, LPGK Sp z o.o.",
        "address": "ul. Różana 1",
        "zipcode": "20-538",
        "city": "Lublin",
        "opening_hours": "pon. - pt. 7:30 - 14:30",
        "opening_hours_weekend": "sob. - nd. Zamknięte",
        "phone": "+81 524 35 03",
        "mail": "biuro@lpgk.lublin.pl",
        "latitude": 51.23133612037963,
        "longitude": 22.514877971685916
    },
    {
        "id": 108,
        "name": "PSZOK, ZGO Sp z o.o.",
        "address": "ul. Akademicka 22",
        "zipcode": "18-400",
        "city": "Łomża",
        "opening_hours": "pon. - pt. 7:00 - 16:00",
        "opening_hours_weekend": "sob. 8:00 - 14:00",
        "phone": "600969201",
        "mail": "pszok@zgo.lomza.eu",
        "latitude": 53.160535430716166,
        "longitude": 22.052713195646767
    },
    {
        "id": 109,
        "name": "PSZOK Zakład Przetwarzania i Unieszkodliwiania Odpadów",
        "address": "ul. Czartoria 1",
        "zipcode": "18-413",
        "city": "Czartoria",
        "opening_hours": "pon. - pt. 7:00 - 16:00",
        "opening_hours_weekend": "sob. 8:00 - 14:00",
        "phone": "513026847",
        "mail": "pszok@zgo.lomza.eu",
        "latitude": 53.18089677516075,
        "longitude": 21.826366008259193
    },
    {
        "id": 110,
        "name": "PSZOK",
        "address": "ul. Graniczna 2",
        "zipcode": "93-428",
        "city": "Łódź",
        "opening_hours": "pon. - pt. 8:00 - 17:00",
        "opening_hours_weekend": "sob. 8:00 - 12:00",
        "phone": "603500505",
        "mail": "sekretariat@zgo.uml.lodz.pl",
        "latitude": 51.713046705018314,
        "longitude": 19.45587206490097
    },
    {
        "id": 111,
        "name": "PSZOK",
        "address": "ul. Kasprowicza 10",
        "zipcode": "92-781",
        "city": "Łódź",
        "opening_hours": "pon. - pt. 8:00 - 17:00",
        "opening_hours_weekend": "sob. 8:00 - 12:00",
        "phone": "663662227",
        "mail": "sekretariat@zgo.uml.lodz.pl",
        "latitude": 51.79954614162402,
        "longitude": 19.581790939760364
    },
    {
        "id": 112,
        "name": "PSZOK",
        "address": "ul. Zamiejska 1",
        "zipcode": "91-867",
        "city": "Łódź",
        "opening_hours": "pon. - pt. 7:00 - 18:00",
        "opening_hours_weekend": "sob. 7:00 - 13:00",
        "phone": "663353190",
        "mail": "sekretariat@zgo.uml.lodz.pl",
        "latitude": 51.728838201798126,
        "longitude": 19.394099612025276
    },
    {
        "id": 113,
        "name": "PSZOK, PUiIK Sp z o.o.",
        "address": "ul. Świderskia 128",
        "zipcode": "21-400",
        "city": "Łuków",
        "opening_hours": "pon. - pt. 8:00 - 16:00",
        "opening_hours_weekend": "sob. 9:00 - 14:00",
        "phone": "+25 798 32 74",
        "mail": "bok@puik.lukow.pl",
        "latitude": 51.90201527190866,
        "longitude": 22.361488697434915
    },
    {
        "id": 114,
        "name": "PSZOK, ZGKiM w Malborku Sp. z o.o.",
        "address": "ul. Gen. de Gaulle'a 70",
        "zipcode": "82-200",
        "city": "Malbork",
        "opening_hours": "pon. - pt. 9:00 - 15:00",
        "opening_hours_weekend": "sob. - nd. Zamknięte",
        "phone": "+55 629 86 00",
        "mail": "sekretariat@zgkim.malbork.pl",
        "latitude": 54.0247085674828,
        "longitude": 19.05025273986186
    },
    {
        "id": 115,
        "name": "PSZOK, ZUOK Sp. z o.o.",
        "address": "ul. Wolności 171",
        "zipcode": "39-300",
        "city": "Mielec",
        "opening_hours": "pon. - pt. 7:00 - 18:00",
        "opening_hours_weekend": "sob. 8:00 - 14:00",
        "phone": "+17 583 11 41",
        "mail": "e-mail:zuok@onet.eu",
        "latitude": 50.28086041557188,
        "longitude": 21.497469432023024
    },
    {
        "id": 116,
        "name": "PSZOK, ZGK Sp. z o.o.",
        "address": "ul. Przemysłowa 17",
        "zipcode": "05-300",
        "city": "Mińsk Mazowiecki",
        "opening_hours": "wt. - pt. 9:00 - 16:00",
        "opening_hours_weekend": "sob. 8:00 - 16:00",
        "phone": "668022018",
        "mail": "boi@umminskmaz.pl",
        "latitude": 52.18860239413254,
        "longitude": 21.583270693179603
    },
    {
        "id": 117,
        "name": "PSZOK, NOVAGO Sp. z o.o.",
        "address": "ul. Uniszki Cegielnia 32A",
        "zipcode": "06-513",
        "city": "Mława",
        "opening_hours": "---",
        "opening_hours_weekend": "---",
        "phone": "697111879",
        "mail": "zuk@uskom.eu",
        "latitude": 53.15094745340873,
        "longitude": 20.403952332440408
    },
    {
        "id": 118,
        "name": "PSZOK, ZOM Sp. z o.o.",
        "address": "ul. Karola Miarki 38",
        "zipcode": "41-400",
        "city": "Mysłowice",
        "opening_hours": "pon. - pt. 12:00 - 20:00",
        "opening_hours_weekend": "sob. 8:00 - 16:00",
        "phone": "+32 222 22 19",
        "mail": "biuro@zomm.pl",
        "latitude": 50.22980812817975,
        "longitude": 19.13380044153617
    },
    {
        "id": 119,
        "name": "PSZOK",
        "address": "ul. Piaskowa",
        "zipcode": "41-404",
        "city": "Mysłowice",
        "opening_hours": "pon. - pt. 8:00 - 16:00",
        "opening_hours_weekend": "sob. - nd. Zamknięte",
        "phone": "882682983",
        "mail": "biuro@zomm.pl",
        "latitude": 50.20139423898052,
        "longitude": 19.177202997359654
    },
    {
        "id": 120,
        "name": "PSZOK, PUK Saniko Sp. z o.o.",
        "address": "ul. Prusa 70",
        "zipcode": "42-300",
        "city": "Myszków",
        "opening_hours": "pon. - pt. 7:00 - 15:00",
        "opening_hours_weekend": "sob. - nd. Zamknięte",
        "phone": "+34 313 23 24",
        "mail": "bok@saniko.pl",
        "latitude": 50.587562965923375,
        "longitude": 19.332680743319447
    },
    {
        "id": 121,
        "name": "PSZOK, ZUO Sp z o.o.",
        "address": "ul. Ujejskiego 341",
        "zipcode": "32-400",
        "city": "Myślenice",
        "opening_hours": "pon. - pt. 7:00 - 17:00",
        "opening_hours_weekend": "sob. 7:00 - 13:00",
        "phone": "+12 272 03 35",
        "mail": "biuro@skladowisko.com.pl",
        "latitude": 49.85789840688659,
        "longitude": 19.967979735733657
    },
    {
        "id": 122,
        "name": "PSZOK, PGKiM Sp. z o.o.",
        "address": "ul. Celna 21",
        "zipcode": "74-300",
        "city": "Myślibórz",
        "opening_hours": "pon. - pt. 10:00 - 18:00",
        "opening_hours_weekend": "sob. 8:00 - 14:00",
        "phone": "+95 747 31 17",
        "mail": "sekretariat@pgkim-mysliborz.com",
        "latitude": 52.93160547118452,
        "longitude": 14.870227370491852
    },
    {
        "id": 123,
        "name": "PSZOK, Ekowod Sp z o.o.",
        "address": "ul. Grunwaldzka 52",
        "zipcode": "46-100",
        "city": "Namysłów",
        "opening_hours": "śr. - pt. 9:00 - 17:00",
        "opening_hours_weekend": "sob. 9:00 - 14:00",
        "phone": "+77 410 13 35",
        "mail": "m.rudnicki@ekowod.eu",
        "latitude": 51.08006065107307,
        "longitude": 17.691725582058204
    },
    {
        "id": 124,
        "name": "PSZOK, Związek Międzygminny Eko- Przyszłość",
        "address": "ul. Polna (bez numeru)",
        "zipcode": "67-100",
        "city": "Nowa Sól",
        "opening_hours": "pon. - pt. 13:00 - 18:00",
        "opening_hours_weekend": "sob. 9:00 - 20:00",
        "phone": "+68 452 12 11",
        "mail": "eko-przyszlosc@eko-przyszlosc.pl",
        "latitude": 51.888489218925706,
        "longitude": 15.920196549448445
    },
    {
        "id": 125,
        "name": "PSZOK, MZO",
        "address": "ul. Przytorowa 7",
        "zipcode": "05-100",
        "city": "Nowy Dwór Mazowiecki",
        "opening_hours": "pon. - pt. 7:00 - 15:00",
        "opening_hours_weekend": "sob. - nd. Zamknięte",
        "phone": "+22 775 27 12",
        "mail": "mzo.ndm@hot.pl ",
        "latitude": 52.42529514162281,
        "longitude": 20.71920545512878
    },
    {
        "id": 126,
        "name": "PSZOK",
        "address": "ul.Tarnowska 120",
        "zipcode": "33-300",
        "city": "Nowy Sącz",
        "opening_hours": "pon. - pt. 7:00 - 15:00",
        "opening_hours_weekend": "sob. 7:00 - 15:00",
        "phone": "+18 449 10 60",
        "mail": "urzad@nowysacz.pl",
        "latitude": 49.641883519050374,
        "longitude": 20.694573626170452
    },
    {
        "id": 127,
        "name": "PSZOK, IB Sp. z o.o.",
        "address": "ul. Jana Pawła II 115",
        "zipcode": "34-400",
        "city": "Nowy Targ",
        "opening_hours": "pon. - pt. 10:00 - 15:30",
        "opening_hours_weekend": "sob. 10:00 - 13:00",
        "phone": "+18 448 85 91",
        "mail": "fcc@fcc-group.pl",
        "latitude": 49.46932391580367,
        "longitude": 20.059299997327972
    },
    {
        "id": 128,
        "name": "PSZOK, PB DOMBUD Sp. z o.o.",
        "address": "ul. Emilii Szczanieckiej 2",
        "zipcode": "64-300",
        "city": "Nowy Tomyśl",
        "opening_hours": "pon. - pt. 7:00 - 15:00",
        "opening_hours_weekend": "sob. - nd. Zamknięte",
        "phone": "+61 442 44 30",
        "mail": "biuro@dombud-nt.pl",
        "latitude": 52.31347924384946,
        "longitude": 16.123497337938137
    },
    {
        "id": 129,
        "name": "PSZOK, PGK Ekom Sp z o.o.",
        "address": "ul. Piłsudskiego 32",
        "zipcode": "48-303",
        "city": "Nysa",
        "opening_hours": "pon. - pt. 8:00 - 16:00",
        "opening_hours_weekend": "sob. 8:00 - 16:00",
        "phone": "+77 435 86 05",
        "mail": "ekom@ekom.com.pl",
        "latitude": 50.462819624404155,
        "longitude": 17.345457824521382
    },
    {
        "id": 130,
        "name": "PSZOK (stacja przeładunkowa)",
        "address": "ul. Kościuszki 57",
        "zipcode": "19-400",
        "city": "Olecko",
        "opening_hours": "---",
        "opening_hours_weekend": "---",
        "phone": "---",
        "mail": "---",
        "latitude": 54.01656370905718,
        "longitude": 22.52355161426868
    },
    {
        "id": 131,
        "name": "PSZOK (byłe składowisko odpadów komunalnych)",
        "address": "ul. Smolna 150",
        "zipcode": "56-400",
        "city": "Oleśnica",
        "opening_hours": "pon. - pt. 9:00 - 17:00",
        "opening_hours_weekend": "sob. - nd. Zamknięte",
        "phone": "+71 733 95 59",
        "mail": "biuro@zzo-olszowa.pl",
        "latitude": 51.163750523943015,
        "longitude": 17.440641966721795
    },
    {
        "id": 132,
        "name": "PSZOK, KOMA OLSZTYN",
        "address": "ul. Towarowa 20a",
        "zipcode": "10-417",
        "city": "Olsztyn",
        "opening_hours": "pon. - pt. 7:00 - 16:00",
        "opening_hours_weekend": "sob. - nd. Zamknięte",
        "phone": "508508873",
        "mail": "biuro@koma.pl",
        "latitude": 53.78167555098306,
        "longitude": 20.533616697520593
    },
    {
        "id": 133,
        "name": "PSZOK GODZIKOWICE",
        "address": "ul. Stalowa 12",
        "zipcode": "55-200",
        "city": "Oława",
        "opening_hours": "pon. - pt. 9:00 - 15:00",
        "opening_hours_weekend": "sob. 9:00 - 15:00",
        "phone": "+71 303 44 39",
        "mail": "biuro@mak-met.pl",
        "latitude": 50.91799359929443,
        "longitude": 17.310353768556116
    },
    {
        "id": 134,
        "name": "PSZOK ZUOK",
        "address": "ul. Różanna 98",
        "zipcode": "26-300",
        "city": "Opoczno",
        "opening_hours": "pon. - pt. 7:00 - 15:00",
        "opening_hours_weekend": "sob. - nd. Zamknięte",
        "phone": "+44 754 76 06",
        "mail": "sekretariat@pgk.opoczno.pl",
        "latitude": 51.36028361144419,
        "longitude": 20.336772370657076
    },
    {
        "id": 135,
        "name": "PSZOK",
        "address": "ul. Podmiejska 69",
        "zipcode": "45-574",
        "city": "Opole",
        "opening_hours": "pon. - pt. 9:00 - 18:00",
        "opening_hours_weekend": "sob. 9:00 - 15:00",
        "phone": "506404484",
        "mail": "sekretariat@zk.opole.pl",
        "latitude": 50.634707476527666,
        "longitude": 17.940552468543654
    },
    {
        "id": 136,
        "name": "PSZOK, Stacja Segregacji Odpadów Komunalnych",
        "address": "ul. Komunalna 8",
        "zipcode": "07-401",
        "city": "Ostrołęka",
        "opening_hours": "wt. - pt. 11:00 - 18:00",
        "opening_hours_weekend": "sob. 11:00 - 18:00",
        "phone": "+29 767 60 51",
        "mail": "ssok@otbs.com.pl",
        "latitude": 53.09236879991126,
        "longitude": 21.62536080483928
    },
    {
        "id": 137,
        "name": "PSZOK",
        "address": "ul. Jana Samsonowicza 18E",
        "zipcode": "27-400",
        "city": "Ostrowiec Świętokrzyski",
        "opening_hours": "pon. - pt. 10:00 - 18:00",
        "opening_hours_weekend": "sob. 10:00 - 14:00",
        "phone": "+41 330 46 01",
        "mail": "---",
        "latitude": 50.94690696969928,
        "longitude": 21.42506664525818
    },
    {
        "id": 138,
        "name": "PSZOK",
        "address": "ul. Wileńskiej 117",
        "zipcode": "07-300",
        "city": "Ostrów Mazowiecka",
        "opening_hours": "---",
        "opening_hours_weekend": "---",
        "phone": "+29 745 22 14",
        "mail": "---",
        "latitude": 52.81581400929352,
        "longitude": 21.905829055146544
    },
    {
        "id": 139,
        "name": "PSZOK, MZO S.A.",
        "address": "ul. Staroprzygodzka 121",
        "zipcode": "63-400",
        "city": "Ostrów Wielkopolski",
        "opening_hours": "---",
        "opening_hours_weekend": "---",
        "phone": "+62 735 35 63",
        "mail": "mzo@mzo.com.pl",
        "latitude": 51.6184897893805,
        "longitude": 17.797834578391598
    },
    {
        "id": 140,
        "name": "PSZOK",
        "address": "ul. Więźniów Oświęcimia 10",
        "zipcode": "32-600",
        "city": "Oświęcim",
        "opening_hours": "pon. - pt. 9:00 - 17:00",
        "opening_hours_weekend": "sob. 8:00 - 13:00",
        "phone": "+33 476 80 81",
        "mail": "pszok@zuk.oswiecim.pl",
        "latitude": 50.03214880396098,
        "longitude": 19.246147619192335
    },
    {
        "id": 141,
        "name": "PSZOK",
        "address": "ul. Bema 12A",
        "zipcode": "32-600",
        "city": "Oświęcim",
        "opening_hours": "pon. - pt. 6:30 - 14:30",
        "opening_hours_weekend": "sob. - nd. Zamknięte",
        "phone": "+33 476 80 63",
        "mail": "pszok@zuk.oswiecim.pl",
        "latitude": 50.0335189032968,
        "longitude": 19.246330982431353
    },
    {
        "id": 142,
        "name": "PSZOK, Remondis Sp. z o.o.",
        "address": "ul. Johna Lennona 4",
        "zipcode": "05-400",
        "city": "Otwock",
        "opening_hours": "pt. 12:00 - 20:00",
        "opening_hours_weekend": "sob. 8:00 - 16:00",
        "phone": "+22 779 50 01",
        "mail": "umotwock@otwock.pl",
        "latitude": 52.100368153005945,
        "longitude": 21.2658421258139
    },
    {
        "id": 143,
        "name": "PSZOK",
        "address": "ul. Łaski 13",
        "zipcode": "95-200",
        "city": "Pabianice",
        "opening_hours": "wt. i czw. 8:00 - 16:00",
        "opening_hours_weekend": "sob. 8:00 - 13:00",
        "phone": "+42 213 96 60",
        "mail": "gmina@pabianice.gmina.pl",
        "latitude": 51.66266446682525,
        "longitude": 19.331916568589268
    },
    {
        "id": 144,
        "name": "PSZOK, Związek Międzygminny PRGOK",
        "address": "ul. Henryka Dąbrowskiego 8",
        "zipcode": "64-920",
        "city": "Piła",
        "opening_hours": "pon. - pt. 7:30 - 15:30",
        "opening_hours_weekend": "sob. - nd. Zamknięte",
        "phone": "+67 344 21 00",
        "mail": "prgok@prgok.pl",
        "latitude": 53.154756051849404,
        "longitude": 16.74465012141099
    },
    {
        "id": 145,
        "name": "PSZOK, ZUK Sp z o.o.",
        "address": "ul. Olsztyńska 3",
        "zipcode": "12-200",
        "city": "Pisz",
        "opening_hours": "wt. - pt. 7:00 - 15:00",
        "opening_hours_weekend": "sob. 8:00 - 13:00",
        "phone": "+87 423 27 34",
        "mail": "pisz@home.pl",
        "latitude": 53.63219009606052,
        "longitude": 21.798904197513714
    },
    {
        "id": 146,
        "name": "PSZOK",
        "address": "ul. Orla 11",
        "zipcode": "97-300",
        "city": "Piotrków Trybunalski",
        "opening_hours": "wt. i czw. 9:00 - 17:00",
        "opening_hours_weekend": "sob. 10:00 - 15:00",
        "phone": "536566562",
        "mail": "---",
        "latitude": 51.39503213718112,
        "longitude": 19.67191135508241
    },
    {
        "id": 147,
        "name": "PSZOK, PGO Sp. z o.o.",
        "address": "ul. Kobierniki 42",
        "zipcode": "09-413",
        "city": "Płock",
        "opening_hours": "---",
        "opening_hours_weekend": "---",
        "phone": "+24 366 23 65",
        "mail": "sekretariat@pgoplock.pl",
        "latitude": 52.61419392850991,
        "longitude": 19.59255733843986
    },
    {
        "id": 148,
        "name": "PSZOK, PGK",
        "address": "ul. Żołnierzy Wyklętych (ulica bez numeru)",
        "zipcode": "09-100",
        "city": "Płońsk",
        "opening_hours": "pon. - pt. 6:00 - 17:00",
        "opening_hours_weekend": "sob. - nd. Zamknięte",
        "phone": "+23 662 34 27",
        "mail": "zom@pgk.plonsk.pl",
        "latitude": 52.628688391335665,
        "longitude": 20.397894913048106
    },
    {
        "id": 149,
        "name": "PSZOK, Polkowicka Dolina Recyklingu",
        "address": "ul. Działkowa 20",
        "zipcode": "59-101",
        "city": "Polkowice",
        "opening_hours": "pon. - pt. 6:00 - 19:00",
        "opening_hours_weekend": "sob. - nd. Zamknięte",
        "phone": "606897407",
        "mail": "dsim@pdr-eko.pl",
        "latitude": 51.509175226844,
        "longitude": 16.117227226252506
    },
    {
        "id": 150,
        "name": "PSZOK, ZZO w Poznaniu Sp.z o.o.",
        "address": "ul. Wrzesińska 12",
        "zipcode": "61-021",
        "city": "Poznań",
        "opening_hours": "pon. - pt. 8:00 - 17:00",
        "opening_hours_weekend": "sob. 8:00 - 16:00",
        "phone": "+61 611 08 11",
        "mail": "pk@um.poznan.pl",
        "latitude": 52.41898409021458,
        "longitude": 16.97914497040977
    },
    {
        "id": 151,
        "name": "PSZOK, ZZO w Poznaniu Sp.z o.o.",
        "address": "ul. 28 Czerwca 1956r. nr 284",
        "zipcode": "61-021",
        "city": "Poznań",
        "opening_hours": "pon. - pt. 8:00 - 17:00",
        "opening_hours_weekend": "sob. 8:00 - 16:00",
        "phone": "+61 833 22 12",
        "mail": "pk@um.poznan.pl",
        "latitude": 52.37485639469021,
        "longitude": 16.903871521658925
    },
    {
        "id": 152,
        "name": "PSZOK, ZZO w Poznaniu Sp.z o.o.",
        "address": "ul. Meteorytowa 1",
        "zipcode": "62-002",
        "city": "Suchy Las",
        "opening_hours": "pon. - pt. 7:00 - 20:00",
        "opening_hours_weekend": "sob. 7:00 - 14:00",
        "phone": "+61 811 96 67",
        "mail": "pk@um.poznan.pl",
        "latitude": 52.49632999777105,
        "longitude": 16.8847162283831
    },
    {
        "id": 153,
        "name": "PSZOK, PURUM Sp. z o.o.",
        "address": "ul. Kowalska 2",
        "zipcode": "83-000",
        "city": "Pruszcz Gdański",
        "opening_hours": "pon. - pt. 7:00 - 15:00",
        "opening_hours_weekend": "sob. - nd. Zamknięte",
        "phone": "+58 773 24 01",
        "mail": "biuro@purum-pruszcz.pl",
        "latitude": 54.246303435243384,
        "longitude": 18.64343089082633
    },
    {
        "id": 154,
        "name": "PSZOK, Miejski Zakład Oczyszczania",
        "address": "ul. Bryły 2",
        "zipcode": "05-808",
        "city": "Pruszków",
        "opening_hours": "czw. - pt. 10:30 - 16:30",
        "opening_hours_weekend": "sob. 8:00 - 14:00",
        "phone": "510203640",
        "mail": "dok@mzo.pl",
        "latitude": 52.16153486954016,
        "longitude": 20.77644499171884
    },
    {
        "id": 155,
        "name": "PSZOK, Remondis Sp z o.o.",
        "address": "ul. Cieszyńska 35",
        "zipcode": "43-241",
        "city": "Łąka",
        "opening_hours": "wt. - pt. 10:00 - 17:00",
        "opening_hours_weekend": "sob. 10:00 - 16:00",
        "phone": "+32 447 19 55",
        "mail": "linda.kunka@remondis.de",
        "latitude": 49.964633871506635,
        "longitude": 18.92556579734934
    },
    {
        "id": 156,
        "name": "PSZOK, PGK Sp z o.o.",
        "address": "ul. Sportowa 1",
        "zipcode": "37-700",
        "city": "Przemyśl",
        "opening_hours": "wt. - pt. 10:00 - 17:00",
        "opening_hours_weekend": "sob. 8:00 - 13:00",
        "phone": "602409198",
        "mail": "kancelaria@um.przemysl.pl",
        "latitude": 49.78534046681116,
        "longitude": 22.7725909001379
    },
    {
        "id": 157,
        "name": "PSZOK, ZUK Sp z o.o.",
        "address": "ul. Dęblińska 2",
        "zipcode": "24-100",
        "city": "Puławy",
        "opening_hours": "pon. - pt. 7:00 - 15:00",
        "opening_hours_weekend": "sob. 8:00 - 14:00",
        "phone": "+81 886 87 68",
        "mail": "info@zuk.pulawy.pl",
        "latitude": 51.425668307507294,
        "longitude": 21.950464579809154
    },
    {
        "id": 158,
        "name": "PSZOK, PK Sp z o.o.",
        "address": "ul. Adamczyka 10",
        "zipcode": "47-400",
        "city": "Racibórz",
        "opening_hours": "pon. - pt. 9:00 - 15:00",
        "opening_hours_weekend": "sob. 9:00 - 13:00",
        "phone": "+32 415 35 77",
        "mail": "---",
        "latitude": 50.08376110284583,
        "longitude": 18.236070549721244
    },
    {
        "id": 159,
        "name": "PSZOK, Radkom Sp z o.o.",
        "address": "ul. Witosa 94",
        "zipcode": "26-600",
        "city": "Radom",
        "opening_hours": "pon. - pt. 7:00 - 15:00",
        "opening_hours_weekend": "sob. - nd. Zamknięte",
        "phone": "+48 384 76 06",
        "mail": "odbiorodpadow@radkom.com.pl",
        "latitude": 51.466563147103,
        "longitude": 21.172284710175767
    },
    {
        "id": 160,
        "name": "PSZOK, PGK Sp. z o.o.",
        "address": "ul. Jeżynowa 40",
        "zipcode": "97-500",
        "city": "Radomsko",
        "opening_hours": "pon. - pt. 6:00 - 18:00",
        "opening_hours_weekend": "sob. 7:00 - 12:00",
        "phone": "+44 682 68 56",
        "mail": "sekretariat@pgk-radomsko.pl",
        "latitude": 51.12869113859963,
        "longitude": 19.488868497751028
    },
    {
        "id": 161,
        "name": "PSZOK, MZO Sp. z o.o.",
        "address": "ul. Rawicz",
        "zipcode": "63-900",
        "city": "Rawicz",
        "opening_hours": "pon. - pt. 6:00 - 18:00",
        "opening_hours_weekend": "sob. 8:00 - 15:00",
        "phone": "506181616",
        "mail": "---",
        "latitude": 51.62553411139605,
        "longitude": 16.89139948617826
    },
    {
        "id": 162,
        "name": "PSZOK, PUK Sp. z o.o.",
        "address": "ul. Dębogórska 148",
        "zipcode": "84-230",
        "city": "Rumia",
        "opening_hours": "pon. - pt. 7:00 - 15:00",
        "opening_hours_weekend": "sob. - nd. Zamknięte",
        "phone": "+58 671 03 96",
        "mail": "sekretariat@pukrumia.pl",
        "latitude": 54.57237116206621,
        "longitude": 18.424649086965807
    },
    {
        "id": 163,
        "name": "PSZOK",
        "address": "ul. Noworudzka 8",
        "zipcode": "41-700",
        "city": "Ruda Śląska",
        "opening_hours": "pon. - pt. 10:00 - 18:00",
        "opening_hours_weekend": "sob. 10:00 - 14:00",
        "phone": "451073939",
        "mail": "urzad@ruda-sl.pl",
        "latitude": 50.28983217156189,
        "longitude": 18.845755497753803
    },
    {
        "id": 164,
        "name": "PSZOK",
        "address": "ul. Kolberga 67",
        "zipcode": "44-251",
        "city": "Rybnik",
        "opening_hours": "pon. - pt. 6:00 - 19:00",
        "opening_hours_weekend": "sob. 9:00 - 16:00",
        "phone": "+32 425 57 77",
        "mail": "info@skladowisko.rybnik.pl",
        "latitude": 50.06466494182383,
        "longitude": 18.583270438165925
    },
    {
        "id": 165,
        "name": "PSZOK, MPGK-Rzeszów Sp. z o.o.",
        "address": "ul. Ciepłownicza 11",
        "zipcode": "35-304",
        "city": "Rzeszów",
        "opening_hours": "wt. - pt. 10:00 - 18:00",
        "opening_hours_weekend": "sob. 9:00 - 17:00",
        "phone": "+17 861 30 01",
        "mail": "mpgk@mpgk.pl",
        "latitude": 50.06238188411402,
        "longitude": 22.02492212620876
    },
    {
        "id": 166,
        "name": "PSZOK, MPGK-Rzeszów Sp. z o.o.",
        "address": "ul. Sikorskiego 428",
        "zipcode": "35-304",
        "city": "Rzeszów",
        "opening_hours": "wt. i czw. 10:00 - 18:00",
        "opening_hours_weekend": "sob. 9:00 - 17:00",
        "phone": "+17 861 30 00",
        "mail": "mpgk@mpgk.pl",
        "latitude": 49.97282296945674,
        "longitude": 22.023458541545697
    },
    {
        "id": 167,
        "name": "PSZOK, PGKiM w Sandomierzu Sp z o.o.",
        "address": "ul. Przemysłowa 12",
        "zipcode": "27-600",
        "city": "Sandomierz",
        "opening_hours": "pon. - pt. 7:00 - 15:00",
        "opening_hours_weekend": "sob. - nd. Zamknięte",
        "phone": "+15 832 36 79",
        "mail": "sekretariat@pgkim.sandomierz.pl",
        "latitude": 50.67818247024052,
        "longitude": 21.761214697400824
    },
    {
        "id": 168,
        "name": "PSZOK, SPGK Sp z o.o.",
        "address": "ul. Jana Pawła II 59",
        "zipcode": "38-500",
        "city": "Sanok",
        "opening_hours": "pon. - pt. 7:00 - 15:00",
        "opening_hours_weekend": "sob. - nd. Zamknięte",
        "phone": "+13 464 78 00",
        "mail": "sekretariat@spgk.com.pl",
        "latitude": 49.575032321383716,
        "longitude": 22.196281734852032
    },
    {
        "id": 169,
        "name": "PSZOK, PUK Serwis",
        "address": "ul. Brzeska 110",
        "zipcode": "08-110",
        "city": "Siedlce",
        "opening_hours": "pon. - pt. 7:00 - 16:00",
        "opening_hours_weekend": "sob. - nd. Zamknięte",
        "phone": "+25 632 84 01",
        "mail": "puk@puk.siedlce.pl",
        "latitude": 52.15633456741237,
        "longitude": 22.294328050876466
    },
    {
        "id": 170,
        "name": "PSZOK",
        "address": "ul. Wyzwolenia 18E",
        "zipcode": "41-103",
        "city": "Siemianowice Śląskie",
        "opening_hours": "pon. - pt. 6:00 - 18:00",
        "opening_hours_weekend": "sob. 7:00 - 15:00",
        "phone": "570576100",
        "mail": "pszok@um.siemianowice.pl",
        "latitude": 50.32830047157224,
        "longitude": 19.01510489738525
    },
    {
        "id": 171,
        "name": "PSZOK, ZUOK Orli Staw",
        "address": "ul. Dzigorzewska 5",
        "zipcode": "98-200",
        "city": "Sieradz",
        "opening_hours": "pon. - pt. 7:30 - 15:30",
        "opening_hours_weekend": "sob. - nd. Zamknięte",
        "phone": "+62 763 56 50",
        "mail": "biuro@orlistaw.pl",
        "latitude": 51.910834989489004,
        "longitude": 18.325523688546646
    },
    {
        "id": 172,
        "name": "PSZOK, Eko-Region Sp z o.o.",
        "address": "ul. Julków",
        "zipcode": "96-116",
        "city": "Dębowa Góra",
        "opening_hours": "pon. - pt. 8:00 - 18:00",
        "opening_hours_weekend": "sob. - nd. Zamknięte",
        "phone": "+46 831 35 31",
        "mail": "sekretariat@eko-region.pl",
        "latitude": 51.881783871903785,
        "longitude": 20.12362658580723
    },
    {
        "id": 173,
        "name": "PSZOK, SKO-EKO Sp. z o.o.",
        "address": "ul. Olszyna 10",
        "zipcode": "43-430",
        "city": "Skoczów",
        "opening_hours": "pon. - pt. 7:00 - 15:00",
        "opening_hours_weekend": "sob. - nd. Zamknięte",
        "phone": "+33 479 94 70",
        "mail": "biuro@sko-eko.skoczow.pl",
        "latitude": 49.81238811680272,
        "longitude": 18.793846928470934
    },
    {
        "id": 174,
        "name": "PSZOK, PKG Sp. z o.o.",
        "address": "ul. Bałtycka 11a",
        "zipcode": "76-200",
        "city": "Słupsk",
        "opening_hours": "pon. - pt. 7:00 - 18:00",
        "opening_hours_weekend": "sob. 7:00 - 15:00",
        "phone": "695900880",
        "mail": "sekretariat@pgkslupsk.pl ",
        "latitude": 54.47947968739114,
        "longitude": 17.025533126930156
    },
    {
        "id": 175,
        "name": "PSZOK, PKG Sp. z o.o.",
        "address": "ul. Szczecińska 112",
        "zipcode": "76-200",
        "city": "Słupsk",
        "opening_hours": "pon. - pt. 7:00 - 15:00",
        "opening_hours_weekend": "sob. - nd. Zamknięte",
        "phone": "+59 843 23 05",
        "mail": "sekretariat@pgkslupsk.pl ",
        "latitude": 54.463033517950535,
        "longitude": 17.013677899649824
    },
    {
        "id": 176,
        "name": "PSZOK, ZWiK Sp. z o.o.",
        "address": "ul. Rozlazłowska 7",
        "zipcode": "96-500",
        "city": "Sochaczew",
        "opening_hours": "pon. - pt. 7:00 - 15:00",
        "opening_hours_weekend": "sob. - nd. Zamknięte",
        "phone": "+46 862 82 30",
        "mail": "zwik@zwik.sochaczew.pl",
        "latitude": 52.228676476300215,
        "longitude": 20.23095891257867
    },
    {
        "id": 177,
        "name": "PSZOK, Przedsiębiorstwo Usług Inżynieryjno- Komunalnych",
        "address": "ul. Kosowska 75",
        "zipcode": "08-300",
        "city": "Sokołów Podlaski",
        "opening_hours": "pon. - pt. 7:00 - 15:00",
        "opening_hours_weekend": "sob. - nd. Zamknięte",
        "phone": "+25 781 24 08",
        "mail": "zeit@puik.sokolowpodl.pl",
        "latitude": 52.419734361049564,
        "longitude": 22.240688772337364
    },
    {
        "id": 178,
        "name": "PSZOK, MPO Sp. z o.o.",
        "address": "ul. Targowa 9",
        "zipcode": "16-100",
        "city": "Sokółka",
        "opening_hours": "pon. - pt. 7:00 - 15:00",
        "opening_hours_weekend": "sob. 9:00 - 14:00",
        "phone": "721496444",
        "mail": "---",
        "latitude": 53.40438808291587,
        "longitude": 23.480133570734967
    },
    {
        "id": 179,
        "name": "PSZOK, ZGK Sp. z o.o.",
        "address": "ul. Targowa 3",
        "zipcode": "86-050",
        "city": "Solec Kujawski",
        "opening_hours": "pon. - pt. 7:00 - 15:00",
        "opening_hours_weekend": "sob. 9:00 - 14:00",
        "phone": "+52 387 13 96",
        "mail": "sekretariat@zgk.soleckujawski.pl",
        "latitude": 53.0819666064075,
        "longitude": 18.212637297510035
    },
    {
        "id": 180,
        "name": "PSZOK Ekostacja Juliusz, MZSO Sp. z o.o.",
        "address": "ul. Grenadierów 21",
        "zipcode": "41-200",
        "city": "Sosnowiec",
        "opening_hours": "pon. - pt. 9:00 - 17:00",
        "opening_hours_weekend": "sob. 9:00 - 13:00",
        "phone": "+32 508 61 01",
        "mail": "biuro@mpgo.sosnowiec.pl",
        "latitude": 50.26205141285966,
        "longitude": 19.216497597382425
    },
    {
        "id": 181,
        "name": "PSZOK RUPIECIARNIA",
        "address": "ul. 1go Sierpnia 18A",
        "zipcode": "37-450",
        "city": "Stalowa Wola",
        "opening_hours": "pon. - pt. 10:00 - 18:00",
        "opening_hours_weekend": "sob. 8:00 - 16:00",
        "phone": "+15 843 55 50",
        "mail": "sekretariat@mzk.stalowa-wola.pl",
        "latitude": 50.57068445745859,
        "longitude": 22.053305397395984
    },
    {
        "id": 182,
        "name": "PSZOK RUPIECIARNIA 2",
        "address": "ul. COP 38",
        "zipcode": "37-450",
        "city": "Stalowa Wola",
        "opening_hours": "wt. - pt. 8:00 - 16:00",
        "opening_hours_weekend": "sob. 8:00 - 16:00",
        "phone": "+15 810 93 30",
        "mail": "sekretariat@mzk.stalowa-wola.pl",
        "latitude": 50.543276872503164,
        "longitude": 22.04219152788044
    },
    {
        "id": 183,
        "name": "PSZOK, Przedsiębiorstwo Usług Komunalnych Piaseczno",
        "address": "ul. Techniczna 6",
        "zipcode": "05-500",
        "city": "Piaseczno",
        "opening_hours": "pon. - pt. 9:00 - 18:00",
        "opening_hours_weekend": "sob. 9:00 - 17:00",
        "phone": "+22 737 17 70",
        "mail": "biuro@pukpiaseczno.pl",
        "latitude": 52.079951746067906,
        "longitude": 21.03598849746404
    },
    {
        "id": 184,
        "name": "PSZOK, FART BIS Sp z o.o.",
        "address": "ul. E. Kwiatkowskiego 36",
        "zipcode": "27-200",
        "city": "Starachowice",
        "opening_hours": "Zamknięte na stałe",
        "opening_hours_weekend": "Zamknięte na stałe",
        "phone": "728442730",
        "mail": "sekretariat@fartkielce.pl",
        "latitude": 51.062937414431296,
        "longitude": 21.062869197417978
    },
    {
        "id": 185,
        "name": "PSZOK EKOPUNKT, ZUK Stargard",
        "address": "ul. Pierwszej Brygady 35",
        "zipcode": "73-110",
        "city": "Stargard",
        "opening_hours": "pon. - pt. 7:00 - 15:00",
        "opening_hours_weekend": "sob. - nd. Zamknięte",
        "phone": "+91 834 18 30",
        "mail": "zgloszenia@zuk-stargard.pl",
        "latitude": 53.34238627774793,
        "longitude": 15.02510679752202
    },
    {
        "id": 186,
        "name": "PSZOK, PUK STARKOM Sp. z o.o.",
        "address": "ul. Tczewska 22",
        "zipcode": "83-200",
        "city": "Starogard Gdański",
        "opening_hours": "pon. - pt. 7:00 - 15:00",
        "opening_hours_weekend": "sob. - nd. Zamknięte",
        "phone": "+58 562 30 67",
        "mail": "bok@starkom.pl",
        "latitude": 53.968643961478804,
        "longitude": 18.53974652638648
    },
    {
        "id": 187,
        "name": "PSZOK, ZUOK Stary Las Sp. z o.o.",
        "address": "ul. Stary Las 9",
        "zipcode": "83-200",
        "city": "Starogard Gdański",
        "opening_hours": "pon. - pt. 6:00 - 22:00",
        "opening_hours_weekend": "sob. - nd. Zamknięte",
        "phone": "+58 775 09 90",
        "mail": "biuro@starylas.pl",
        "latitude": 53.96251250091935,
        "longitude": 18.431539668715732
    },
    {
        "id": 188,
        "name": "PSZOK, ZUK w Strzegomiu Sp z o.o.",
        "address": "al. Wojska Polskiego 75",
        "zipcode": "58-150",
        "city": "Strzegom",
        "opening_hours": "pon. - pt. 7:00 - 15:00",
        "opening_hours_weekend": "sob. - nd. Zamknięte",
        "phone": "+74 855 10 52",
        "mail": "biuro@zuk.strzegom.pl",
        "latitude": 50.974846827235574,
        "longitude": 16.360911668578865
    },
    {
        "id": 189,
        "name": "PSZOK, PGO w Suwałkach Sp z o.o.",
        "address": "ul. Raczkowska 150A",
        "zipcode": "16-400",
        "city": "Suwałki",
        "opening_hours": "pon. - pt. 8:00 - 18:00",
        "opening_hours_weekend": "sob. 8:00 - 14:00",
        "phone": "+87 566 52 14",
        "mail": "naduzycia.pois@mr.gov.pl",
        "latitude": 54.06665267250965,
        "longitude": 22.894455668720614
    },
    {
        "id": 190,
        "name": "PSZOK, Tarnowska Gospodarka Komunalna TP-KOM Sp z o.o.",
        "address": "ul. Szkolna",
        "zipcode": "62-080",
        "city": "Rumianek",
        "opening_hours": "pon. - pt. 7:00 - 18:00",
        "opening_hours_weekend": "sob. - nd. Zamknięte",
        "phone": "510911184",
        "mail": "---",
        "latitude": 52.46991847205085,
        "longitude": 16.625156126317005
    },
    {
        "id": 191,
        "name": "PSZOK, SPK Sp z o.o.",
        "address": "ul. Świerkowa 17",
        "zipcode": "62-020",
        "city": "Rabowice",
        "opening_hours": "pon. - pt. 9:00 - 17:00",
        "opening_hours_weekend": "sob. 9:00 - 14:00",
        "phone": "+61 817 34 21",
        "mail": "sok@spk.swarzedz.pl",
        "latitude": 52.38000982291553,
        "longitude": 17.113180968642432
    },
    {
        "id": 192,
        "name": "PSZOK",
        "address": "ul. Stacyjna 19",
        "zipcode": "58-306",
        "city": "Wałbrzych",
        "opening_hours": "pon. - pt. 10:00 - 18:00",
        "opening_hours_weekend": "sob. 8:00 - 13:00",
        "phone": "536052644",
        "mail": "biuro@mzuk.com.pl",
        "latitude": 50.814213602618636,
        "longitude": 16.3137179777906
    },
    {
        "id": 193,
        "name": "PSZOK Ekoport Taczaka",
        "address": "ul. Taczaka 21",
        "zipcode": "71-173",
        "city": "Szczecin",
        "opening_hours": "pon. - pt. 9:00 - 19:00",
        "opening_hours_weekend": "sob. 9:00 - 15:00",
        "phone": "723578436",
        "mail": "edward.maliszewski@zuk.szczecin.pl",
        "latitude": 53.435442331500234,
        "longitude": 14.492662731000031
    },
    {
        "id": 194,
        "name": "PSZOK Ekoport Gdańska",
        "address": "ul. Gdańska 3G",
        "zipcode": "70-660",
        "city": "Szczecin",
        "opening_hours": "pon. - pt. 9:00 - 17:00",
        "opening_hours_weekend": "sob. 9:00 - 15:00",
        "phone": "723578401",
        "mail": "edward.maliszewski@zuk.szczecin.pl",
        "latitude": 53.414812866884226,
        "longitude": 14.568787412843923
    },
    {
        "id": 195,
        "name": "PSZOK Ekoport Helska",
        "address": "ul. Helska",
        "zipcode": "70-834",
        "city": "Szczecin",
        "opening_hours": "pon. - pt. 9:00 - 17:00",
        "opening_hours_weekend": "sob. 9:00 - 15:00",
        "phone": "723578430",
        "mail": "edward.maliszewski@zuk.szczecin.pl",
        "latitude": 53.39734246110787,
        "longitude": 14.67438072633807
    },
    {
        "id": 196,
        "name": "PSZOK Ekoport Leszczynowa",
        "address": "ul. Leszczynowa 15A",
        "zipcode": "70-766",
        "city": "Szczecin",
        "opening_hours": "pon. - pt. 9:00 - 19:00",
        "opening_hours_weekend": "sob. 9:00 - 15:00",
        "phone": "723578413",
        "mail": "edward.maliszewski@zuk.szczecin.pl",
        "latitude": 53.38603297230353,
        "longitude": 14.629021697502418
    },
    {
        "id": 197,
        "name": "PSZOK Ekoport Firlika",
        "address": "ul. Teofila Firlika 31",
        "zipcode": "71-637",
        "city": "Szczecin",
        "opening_hours": "pon. - pt. 9:00 - 17:00",
        "opening_hours_weekend": "sob. 9:00 - 15:00",
        "phone": "723578402",
        "mail": "edward.maliszewski@zuk.szczecin.pl",
        "latitude": 53.439576664324534,
        "longitude": 14.574374935996113
    },
    {
        "id": 198,
        "name": "PSZOK Ekoport Górna",
        "address": "ul. Górna 3B",
        "zipcode": "71-803",
        "city": "Szczecin",
        "opening_hours": "pon. - pt. 9:00 - 17:00",
        "opening_hours_weekend": "sob. 9:00 - 15:00",
        "phone": "723578400",
        "mail": "edward.maliszewski@zuk.szczecin.pl",
        "latitude": 53.47768964991681,
        "longitude": 14.583467277183
    },
    {
        "id": 199,
        "name": "PSZOK Ekoport Harcerzy",
        "address": "ul. Arkońska/Harcerzy 39/40",
        "zipcode": "71-470",
        "city": "Szczecin",
        "opening_hours": "pon. - pt. 9:00 - 19:00",
        "opening_hours_weekend": "sob. 9:00 - 15:00",
        "phone": "723578405",
        "mail": "edward.maliszewski@zuk.szczecin.pl",
        "latitude": 53.453558510407404,
        "longitude": 14.521975882811905
    },
    {
        "id": 200,
        "name": "PSZOK Ekoport Kołbacka",
        "address": "ul. Kołbacka (róg ul. Przyszłości)",
        "zipcode": "70-001",
        "city": "Szczecin",
        "opening_hours": "pon. - pt. 9:00 - 17:00",
        "opening_hours_weekend": "sob. 9:00 - 15:00",
        "phone": "723578443",
        "mail": "edward.maliszewski@zuk.szczecin.pl",
        "latitude": 53.35593347229483,
        "longitude": 14.743857826336106
    },
    {
        "id": 201,
        "name": "PSZOK, ZGO Sp z o.o.",
        "address": "ul. Mateuszewo 8",
        "zipcode": "63-100",
        "city": "Mateuszewo",
        "opening_hours": "wt. - pt. 9:00 - 17:00",
        "opening_hours_weekend": "sob. 9:00 - 13:00",
        "phone": "+62 747 24 56",
        "mail": "sekretariat@wcr-jarocin.pl",
        "latitude": 52.13394580207168,
        "longitude": 17.105120412785578
    },
    {
        "id": 202,
        "name": "PSZOK, Usługi Komunalne Sp. z o.o.",
        "address": "ul. Nad Strugą 7",
        "zipcode": "63-000",
        "city": "Środa Wielkopolska",
        "opening_hours": "pon. - pt. 6:00 - 20:00",
        "opening_hours_weekend": "sob. 6:00 - 13:00",
        "phone": "600979569",
        "mail": "pszok@uk-sroda.pl",
        "latitude": 52.214956550646086,
        "longitude": 17.28614407687801
    },
    {
        "id": 203,
        "name": "PSZOK, ZOM Sp. z o.o.",
        "address": "ul. Metalowców 4",
        "zipcode": "58-100",
        "city": "Świdnica",
        "opening_hours": "pon. - pt. 8:00 - 17:00",
        "opening_hours_weekend": "sob. 10:00 - 14:00",
        "phone": "885066505",
        "mail": "czystaswidnica@um.swidnica.pl",
        "latitude": 50.84805755520103,
        "longitude": 16.514117182047922
    },
    {
        "id": 204,
        "name": "PSZOK, REMONDIS Świdnik Sp. z o.o.",
        "address": "al. Lotników Polskich 5",
        "zipcode": "21-040",
        "city": "Świdnik",
        "opening_hours": "pon. - pt. 7:30 - 15:30",
        "opening_hours_weekend": "sob. - nd. Zamknięte",
        "phone": "+81 751 55 16",
        "mail": "---",
        "latitude": 51.225033534437436,
        "longitude": 22.697301059913496
    },
    {
        "id": 205,
        "name": "PSZOK",
        "address": "ul. Jeziory 55",
        "zipcode": "66-200",
        "city": "Świebodzin",
        "opening_hours": "pon. - pt. 7:00 - 15:00",
        "opening_hours_weekend": "sob. - nd. Zamknięte",
        "phone": "885184000",
        "mail": "sekretariat@zwkiuk.swiebodzin.pl",
        "latitude": 52.21031981719157,
        "longitude": 15.578917500208345
    },
    {
        "id": 206,
        "name": "PSZOK, Eko-Wisła Sp. z o.o.",
        "address": "ul. Sulnówko 74C",
        "zipcode": "86-100",
        "city": "Świecie",
        "opening_hours": "wt. 7:30 - 17:00",
        "opening_hours_weekend": "sob. 7:30 - 12:00",
        "phone": "+52 330 19 80",
        "mail": "biuro@ekowisła.pl",
        "latitude": 53.42652635793804,
        "longitude": 18.406549610999217
    },
    {
        "id": 207,
        "name": "PSZOK, MPGK Sp z o.o.",
        "address": "ul. Szpitalna (bez numeru)",
        "zipcode": "41-600",
        "city": "Świętochłowice",
        "opening_hours": "pon. - pt. 7:00 - 18:00",
        "opening_hours_weekend": "sob. 8:00 - 14:00",
        "phone": "+32 345 19 10",
        "mail": "ego@swietochlowice.pl",
        "latitude": 50.29137691183559,
        "longitude": 18.92976127482673
    },
    {
        "id": 208,
        "name": "PSZOK, Remondis Sp. z o.o.",
        "address": "ul. Karsiborska 31",
        "zipcode": "72-600",
        "city": "Świnoujście",
        "opening_hours": "pon. - pt. 7:00 - 15:00",
        "opening_hours_weekend": "sob. 8:00 - 14:00",
        "phone": "+91 321 48 70",
        "mail": "swinoujscie@remondis.pl",
        "latitude": 53.89560623862795,
        "longitude": 14.24076946869087
    },
    {
        "id": 209,
        "name": "PSZOK, Pod Grzybem",
        "address": "ul. Rusinowskiego 1",
        "zipcode": "39-400",
        "city": "Tarnobrzeg",
        "opening_hours": "pon. - pt. 9:00 - 17:00",
        "opening_hours_weekend": "sob. 8:00 - 14:00",
        "phone": "+15 822 57 10",
        "mail": "biuro@tsm.tarnobrzeg.pl",
        "latitude": 50.56539636743411,
        "longitude": 21.672944141426168
    },
    {
        "id": 210,
        "name": "SANTA PSZOK",
        "address": "ul. Szeroka 8",
        "zipcode": "39-400",
        "city": "Tarnobrzeg",
        "opening_hours": "pon. - pt. 7:00 - 16:00",
        "opening_hours_weekend": "sob. - nd. Zamknięte",
        "phone": "+15 823 69 41",
        "mail": "biuro@santa-eko.pl",
        "latitude": 50.57488162331663,
        "longitude": 21.673953449472435
    },
    {
        "id": 211,
        "name": "PSZOK Remondis Sp z o.o.",
        "address": "ul. Laryszowska 42",
        "zipcode": "42-680",
        "city": "Tarnowskie Góry",
        "opening_hours": "pon. - pt. 7:00 - 18:00",
        "opening_hours_weekend": "sob. 8:00 - 13:00",
        "phone": "+32 284 17 33",
        "mail": "---",
        "latitude": 50.45634293296812,
        "longitude": 18.78446569737084
    },
    {
        "id": 212,
        "name": "PSZOK, ZUOS Sp. z o.o.",
        "address": "ul.Rokicka 5A",
        "zipcode": "83-110",
        "city": "Tczew",
        "opening_hours": "pon. - pt. 8:00 - 18:00",
        "opening_hours_weekend": "sob. 8:00 - 14:00",
        "phone": "+58 532 83 72",
        "mail": "zuos@zuostczew.pl",
        "latitude": 54.081067760444256,
        "longitude": 18.756222626369585
    },
    {
        "id": 213,
        "name": "PSZOK, PGKiM Sp. z o.o.",
        "address": "ul. Petera 63",
        "zipcode": "22-600",
        "city": "Tomaszów Lubelski",
        "opening_hours": "pon. - pt. 7:00 - 15:00",
        "opening_hours_weekend": "sob. 7:00 - 15:00",
        "phone": "+84 664 35 70",
        "mail": "sekretariat@pgkim-tomaszow.pl",
        "latitude": 50.443983429509956,
        "longitude": 23.430036286009578
    },
    {
        "id": 214,
        "name": "PSZOK, Eneris Surowce S.A.",
        "address": "ul. Majowa 87/89",
        "zipcode": "97-200",
        "city": "Tomaszów Mazowiecki",
        "opening_hours": "pon. - pt. 6:00 - 17:00",
        "opening_hours_weekend": "sob. - nd. Zamknięte",
        "phone": "+44 724 41 71",
        "mail": "tomaszow@eneris.pl",
        "latitude": 51.53080779459058,
        "longitude": 20.03533942365344
    },
    {
        "id": 215,
        "name": "PSZOK, ZUOK Sp. z o.o.",
        "address": " ul. Kociewska 35",
        "zipcode": "87-100",
        "city": "Toruń",
        "opening_hours": "pon. - pt. 10:00 - 18:00",
        "opening_hours_weekend": "sob. 10:00 - 14:00",
        "phone": "512891738",
        "mail": "bok@mpo.torun.pl",
        "latitude": 53.04687042136424,
        "longitude": 18.63745207334811
    },
    {
        "id": 216,
        "name": "PSZOK",
        "address": "ul. Dwernickiego 15 - 15A",
        "zipcode": "87-100",
        "city": "Toruń",
        "opening_hours": "pon. - pt. 10:00 - 18:00",
        "opening_hours_weekend": "sob. 10:00 - 14:00",
        "phone": "512891738",
        "mail": "bok@mpo.torun.pl",
        "latitude": 52.996682955446786,
        "longitude": 18.64658318141487
    },
    {
        "id": 217,
        "name": "PSZOK",
        "address": "ul. Stefana Żeromskiego 14",
        "zipcode": "64-980",
        "city": "Trzcianka",
        "opening_hours": "pon. - pt. 9:00 - 17:00",
        "opening_hours_weekend": "sob. 9:00 - 14:00",
        "phone": "+67 216 33 13",
        "mail": "biuro@kombud.org.pl",
        "latitude": 53.02710153919325,
        "longitude": 16.463435792396005
    },
    {
        "id": 218,
        "name": "PSZOK",
        "address": "ul. Serdeczna 100",
        "zipcode": "43-100",
        "city": "Tychy",
        "opening_hours": "pon. - pt. 6:30 - 21:00",
        "opening_hours_weekend": "sob. 9:00 - 13:00",
        "phone": "+32 707 01 03",
        "mail": "biuro@master.tychy.pl",
        "latitude": 50.10095197177422,
        "longitude": 19.047270992105492
    },
    {
        "id": 219,
        "name": "PSZOK, Gminny Zakład Gospodarki Komunalnej",
        "address": "ul. Przebendów 44",
        "zipcode": "39-308",
        "city": "Wadowice Górne",
        "opening_hours": "pon. - pt. 8:00 - 16:00",
        "opening_hours_weekend": "sob. - nd. Zamknięte",
        "phone": "+14 666 96 50",
        "mail": "gzgk@wadowicegorne.pl",
        "latitude": 50.26670846771101,
        "longitude": 21.28648471971848
    },
    {
        "id": 220,
        "name": "PSZOK, EKO Sp z o.o.",
        "address": "ul. T. Kościuszki 304",
        "zipcode": "34-123",
        "city": "Chocznia",
        "opening_hours": "pon. - pt. 6:00 - 18:00",
        "opening_hours_weekend": "sob. - nd. Zamknięte",
        "phone": "+33 873 06 64",
        "mail": "biuro@eko-chocznia.pl",
        "latitude": 49.87288375615616,
        "longitude": 19.433078084162386
    },
    {
        "id": 221,
        "name": "PSZOK, P.P.H.U. LEKARO",
        "address": "ul. Zawodzie 1",
        "zipcode": "01-001",
        "city": "Warszawa",
        "opening_hours": "pon. - pt. 11:00 - 19:00",
        "opening_hours_weekend": "sob. 9:00 - 17:00",
        "phone": "+22 185 52 51",
        "mail": "lekaro@lekaro.pl",
        "latitude": 52.180943721489875,
        "longitude": 21.087551766158715
    },
    {
        "id": 222,
        "name": "PSZOK, PK Sp. z o.o.",
        "address": "ul. Ruda",
        "zipcode": "98-300",
        "city": "Wieluń",
        "opening_hours": "wt. i czw. 15:00 - 18:00",
        "opening_hours_weekend": "sob. 10:00 - 15:00",
        "phone": "+43 842 84 77",
        "mail": "sekretariat@komunalne.wielun.pl",
        "latitude": 51.19145005918117,
        "longitude": 18.629618239313892
    },
    {
        "id": 223,
        "name": "PSZOK, PGK SANIKO Sp. z o.o.",
        "address": "ul. Komunalna 4",
        "zipcode": "87-800",
        "city": "Włocławek",
        "opening_hours": "pon. - pt. 7:00 - 15:00",
        "opening_hours_weekend": "sob. - nd. Zamknięte",
        "phone": "+54 412 18 00",
        "mail": "saniko@saniko.com.pl",
        "latitude": 52.64159251047589,
        "longitude": 19.069497756342308
    },
    {
        "id": 224,
        "name": "PSZOK, Służby Komunalne Miasta",
        "address": "ul. Marklowicka 21F",
        "zipcode": "44-300",
        "city": "Wodzisław Śląski",
        "opening_hours": "wt. i czw. - pt. 8:00 - 18:00",
        "opening_hours_weekend": "sob. 9:00 - 13:00",
        "phone": "+32 455 51 93",
        "mail": "sekretariat@skm.wodzislaw-slaski.pl",
        "latitude": 50.02163967151678,
        "longitude": 18.494010097351975
    },
    {
        "id": 225,
        "name": "PSZOK",
        "address": "ul. Łukasiewicza 4",
        "zipcode": "05-200",
        "city": "Wołomin",
        "opening_hours": "pon. - pt. 7:00 - 15:00",
        "opening_hours_weekend": "sob. 10:00 - 16:00",
        "phone": "+22 318 14 92",
        "mail": "mzo@mzo.wolomin.pl",
        "latitude": 52.359876272022454,
        "longitude": 21.2561328551257
    },